,Numéro de mesure,Longitude,Latitude,Position,Insee,Adresse,Complément,Code postal,Commune,Date de mesure,Mesure réalisée,Rapport,Conformité de la mesure,Niveau_global,Type d'environnement,Laboratoire,target
0,175,3.9161099999999998,43.58528,"03° 54' 58.00'' Est, 43° 35' 07.00'' Nord",34129,Mas de Gau,,34970,LATTES,06/12/2001,En extérieur,FicheMesure175.pdf,Oui,0.0,Divers,SATELIT,1
1,180,4.04194,43.64694,"04° 02' 31.00'' Est, 43° 38' 49.00'' Nord",34176,5539 Rue Lou Claou de la Oulivettas,,34130,MUDAISON,06/12/2001,En extérieur,FicheMesure180.pdf,Oui,0.0,Divers,SATELIT,1
2,543,3.03167,43.360279999999996,"03° 01' 54.00'' Est, 43° 21' 37.00'' Nord",34225,Chemin de Montfaucon,résidence de  Mme SOUTADE,34620,PUISSERGUIER,23/05/2002,En extérieur,FicheMesure543.pdf,Oui,0.54,Divers,APAVE,1
3,545,3.03278,43.361670000000004,"03° 01' 58.00'' Est, 43° 21' 42.00'' Nord",34225,Chemin de Quarante,résidence de  M. GONZALEZ,34620,PUISSERGUIER,23/05/2002,En extérieur,FicheMesure545.pdf,Oui,0.2,Divers,APAVE,1
4,850,3.5644400000000003,43.64583,"03° 33' 52.00'' Est, 43° 38' 45.00'' Nord",34114,480 Chemin de Pioch Courbi,Chez Mme et M. GALOIS,34150,GIGNAC,10/10/2002,En extérieur,FicheMesure850.pdf,Oui,0.53,Rue / Route / Parking,APAVE,1
5,851,3.5630599999999997,43.64806,"03° 33' 47.00'' Est, 43° 38' 53.00'' Nord",34114,Vieux chemin,Chez Mme et M. HERMITTE.,34150,GIGNAC,10/10/2002,En extérieur,FicheMesure851.pdf,Oui,0.78,Rue / Route / Parking,APAVE,1
6,852,3.5630599999999997,43.64694,"03° 33' 47.00'' Est, 43° 38' 49.00'' Nord",34114,401 Chemin de Pioch Courbi,Chez Mme et M. EON.,34150,GIGNAC,10/10/2002,En extérieur,FicheMesure852.pdf,Oui,0.53,Rue / Route / Parking,APAVE,1
7,1072,3.9161099999999998,43.585,"03° 54' 58.00'' Est, 43° 35' 06.00'' Nord",34129,Château d'eau de Boirargues,Au pied du château d'eau.,34970,LATTES,22/01/2003,En extérieur,FicheMesure1072.pdf,Oui,0.0,Rue / Route / Parking,CSTB - Saint Martin d'Heres,1
8,1073,3.91667,43.58667,"03° 55' 00.00'' Est, 43° 35' 12.00'' Nord",34129,Avenue de la Mer - Garage Tunning XXS,Au début du chemin donnant sur le château d'eau par la route de Carnon.,34970,LATTES,22/01/2003,En extérieur,FicheMesure1073.pdf,Oui,0.54,Rue / Route / Parking,CSTB - Saint Martin d'Heres,1
9,1074,3.91889,43.58583,"03° 55' 08.00'' Est, 43° 35' 09.00'' Nord",34129,Chemin des Mas de Gau,"Au début de la piste cyclable donnant sur le chemin des Mas de Gau, le long de l'Avenue de la Mer.",34970,LATTES,22/01/2003,En extérieur,FicheMesure1074.pdf,Oui,0.0,Rue / Route / Parking,CSTB - Saint Martin d'Heres,1
10,1115,3.2080599999999997,43.34861,"03° 12' 29.00'' Est, 43° 20' 55.00'' Nord",34032,15 Rue des Cygnes,Sous le préau de la porte d'entrée de l'immeuble,34500,BEZIERS,20/02/2003,En extérieur,FicheMesure1115.pdf,Oui,0.3,Rue / Route / Parking,CSTB - Saint Martin d'Heres,1
11,1193,3.8975,43.638059999999996,"03° 53' 51.00'' Est, 43° 38' 17.00'' Nord",34057,256 Chemin du Château d'eau,au pied du château d'eau devant l'entrée du 256.,34170,CASTELNAU-LE-LEZ,13/03/2003,En extérieur,FicheMesure1193.pdf,Oui,1.35,Rue / Route / Parking,CSTB - Saint Martin d'Heres,1
12,1194,3.8977800000000005,43.63889,"03° 53' 52.00'' Est, 43° 38' 20.00'' Nord",34057,50 Chemin du Château d'eau,Devant l'entrée du 50 chemin du château d'eau.,34170,CASTELNAU-LE-LEZ,13/03/2003,En extérieur,FicheMesure1194.pdf,Oui,1.47,Rue / Route / Parking,CSTB - Saint Martin d'Heres,1
13,1195,3.89889,43.63861,"03° 53' 56.00'' Est, 43° 38' 19.00'' Nord",34057,Impasse de l'Oppudum,Devant l'entrée du 225-230 impasse de l'oppudum,34170,CASTELNAU-LE-LEZ,13/03/2003,En extérieur,FicheMesure1195.pdf,Oui,0.57,Rue / Route / Parking,CSTB - Saint Martin d'Heres,1
14,1955,3.88556,43.716390000000004,"03° 53' 08.00'' Est, 43° 42' 59.00'' Nord",34014,283 Rue de Montpellier,"Les mesures en large bande ont été effectuées en plusieurs emplacements dans l'azimut du relais GSM (maison de Mr Gelly,terrain de jeux ainsi que la place publique).Les mesures spectrales ont été réalisées au point de champ maximum en large bande, c'est à dire dans la cour d'entrée de la maison de Mr Gelly.",34820,ASSAS,03/02/2003,En extérieur,FicheMesure1955.pdf,Oui,0.95,Rue / Route / Parking,BUREAU VERITAS,1
15,2286,3.86944,43.60833,"03° 52' 10.00'' Est, 43° 36' 30.00'' Nord",34172,Cours Gambetta,,34000,MONTPELLIER,20/08/2003,En extérieur,FicheMesure2286.pdf,Oui,0.4,Rue / Route / Parking,AEXPERTISE,1
16,2428,4.08361,43.558609999999994,"04° 05' 01.00'' Est, 43° 33' 31.00'' Nord",34344,140 Rue du Port,Terrasse de l'Hotel Mercure,34280,LA GRANDE-MOTTE,31/07/2003,En extérieur,FicheMesure2428.pdf,Oui,9.63,Divers,APAVE,0
17,2429,4.08361,43.558609999999994,"04° 05' 01.00'' Est, 43° 33' 31.00'' Nord",34344,140 Rue du Port,Terrasse de l'Hotel Mercure,34280,LA GRANDE-MOTTE,31/07/2003,En extérieur,FicheMesure2429.pdf,Oui,5.16,Divers,APAVE,1
18,3043,3.2305599999999997,43.36139,"03° 13' 50.00'' Est, 43° 21' 41.00'' Nord",34032,Hors de Monseigneur - Réservoir de la Cor,MESURE EN PIED DE PYLONE,34500,BEZIERS,13/05/2003,En extérieur,FicheMesure3043.pdf,Oui,0.0,Divers,BUREAU VERITAS,1
19,3045,3.23028,43.361670000000004,"03° 13' 49.00'' Est, 43° 21' 42.00'' Nord",34032,17 Rue des Terries,MESURE SUR TROTTOIR FACE AU N° 17 RUE DES TERRIES,34500,BEZIERS,13/05/2003,En extérieur,FicheMesure3045.pdf,Oui,0.0,Rue / Route / Parking,BUREAU VERITAS,1
20,3046,3.2286099999999998,43.36306,"03° 13' 43.00'' Est, 43° 21' 47.00'' Nord",34032,Réservoir d'eau,MESURE FACE AU RESERVOIR DEVANT GRILLAGE MAISON,34500,BEZIERS,13/05/2003,En extérieur,FicheMesure3046.pdf,Oui,0.0,Rue / Route / Parking,BUREAU VERITAS,1
21,3047,3.22917,43.36222,"03° 13' 45.00'' Est, 43° 21' 44.00'' Nord",34032,Impasse Chaim Soudine,MESURE IMPASSE CHAIM SOUDINE AU BOUT DE L IMPASSE,34500,BEZIERS,13/05/2003,En extérieur,FicheMesure3047.pdf,Oui,0.0,Rue / Route / Parking,BUREAU VERITAS,1
22,3261,3.47833,43.30778,"03° 28' 42.00'' Est, 43° 18' 28.00'' Nord",34003,2 Boulevard du Soleil,Dans la cour de récréation de l'école A. Camus.,34300,AGDE,14/01/2004,En extérieur,FicheMesure3261.pdf,Oui,0.0,Rue / Route / Parking,CSTB - Saint Martin d'Heres,1
23,3263,3.4775,43.3075,"03° 28' 39.00'' Est, 43° 18' 27.00'' Nord",34003,2 Boulevard du Soleil,Devant l'entrée de l'école A. Camus.,34300,AGDE,14/01/2004,En extérieur,FicheMesure3263.pdf,Oui,0.0,Rue / Route / Parking,CSTB - Saint Martin d'Heres,1
24,3309,3.79389,43.48944,"03° 47' 38.00'' Est, 43° 29' 22.00'' Nord",34333,Rue Rocagnas,Ecole  Maternelle de Vic la Gardiole,34110,VIC-LA-GARDIOLE,17/09/2003,En extérieur,FicheMesure3309.pdf,Oui,0.95,Rue / Route / Parking,BUREAU VERITAS,1
25,3310,3.79389,43.48944,"03° 47' 38.00'' Est, 43° 29' 22.00'' Nord",34333,Rue Rocagnas,Ecole  Maternelle de Vic la Gardiole,34110,VIC-LA-GARDIOLE,17/09/2003,En extérieur,FicheMesure3310.pdf,Oui,0.95,Rue / Route / Parking,BUREAU VERITAS,1
26,3876,3.8113900000000003,43.64,"03° 48' 41.00'' Est, 43° 38' 24.00'' Nord",34172,"Quartier ""la Paillade""-Tour Tryton N°3",MESURE DEVANT ENTREE ECOLE,34080,MONTPELLIER,13/05/2003,En extérieur,FicheMesure3876.pdf,Oui,4.0,Rue / Route / Parking,BUREAU VERITAS,1
27,3877,3.8113900000000003,43.64,"03° 48' 41.00'' Est, 43° 38' 24.00'' Nord",34172,"Quartier ""La Paillade"" - Tour Triton N°3",MESURE DEVANT ENTREE ECOLE,34080,MONTPELLIER,13/05/2003,En extérieur,FicheMesure3877.pdf,Oui,0.0,Rue / Route / Parking,BUREAU VERITAS,1
28,3878,3.8111099999999998,43.64028,"03° 48' 40.00'' Est, 43° 38' 25.00'' Nord",34172,"Quartier ""La Paillade"" Tour Triton N°3",MESURE DEVANT ENTREE ECOLE,34080,MONTPELLIER,13/05/2003,En extérieur,FicheMesure3878.pdf,Oui,0.0,Rue / Route / Parking,BUREAU VERITAS,1
29,3879,3.81167,43.639720000000004,"03° 48' 42.00'' Est, 43° 38' 23.00'' Nord",34172,"Quartier ""La Paillade"" Tour Triton N°3",MESURE DEVANT ENTREE ECOLE,34080,MONTPELLIER,13/05/2003,En extérieur,FicheMesure3879.pdf,Oui,0.0,Rue / Route / Parking,BUREAU VERITAS,1
30,4467,3.90194,43.61861,"03° 54' 07.00'' Est, 43° 37' 07.00'' Nord",34172,47 Place Jules Valles,Trottoir de la villa N° 47 Place Jules Valles,34000,MONTPELLIER,25/06/2004,En extérieur,FicheMesure4467.pdf,Oui,1.39,Rue / Route / Parking,BUREAU VERITAS,1
31,4468,3.8375,43.60778,"03° 50' 15.00'' Est, 43° 36' 28.00'' Nord",34172,88 Rue Viollet Le Duc,Groupe scolaire La Martelle,34070,MONTPELLIER,09/07/2004,En extérieur,FicheMesure4468.pdf,Oui,3.06,Rue / Route / Parking,BUREAU VERITAS,1
32,4664,3.6772199999999997,43.39417,"03° 40' 38.00'' Est, 43° 23' 39.00'' Nord",34301,1 Place Edouard Hériot,Balcon de M. EMINET,34200,SETE,16/06/2004,En extérieur,FicheMesure4664.pdf,Oui,0.0,Divers,APAVE,1
33,4930,3.8738900000000003,43.611670000000004,"03° 52' 26.00'' Est, 43° 36' 42.00'' Nord",34172,Place Saint Pierre,Devant la faculté de médecine.,34000,MONTPELLIER,20/10/2004,En extérieur,FicheMesure4930.pdf,Oui,0.0,Rue / Route / Parking,CSTB - Saint Martin d'Heres,1
34,4931,3.83972,43.6175,"03° 50' 23.00'' Est, 43° 37' 03.00'' Nord",34172,703 Rue d'Alco,Devant le portail du groupe scolaire du Petit Bard.,34000,MONTPELLIER,19/10/2004,En extérieur,FicheMesure4931.pdf,Oui,1.38,Rue / Route / Parking,CSTB - Saint Martin d'Heres,1
35,4932,3.84,43.61694,"03° 50' 24.00'' Est, 43° 37' 01.00'' Nord",34172,Rue d'Alco,"A coté de l'arrêt de bus ""Paul Bringuier"".",34000,MONTPELLIER,19/10/2004,En extérieur,FicheMesure4932.pdf,Oui,1.11,Rue / Route / Parking,CSTB - Saint Martin d'Heres,1
36,4933,3.87583,43.6125,"03° 52' 33.00'' Est, 43° 36' 45.00'' Nord",34172,21 Rue de l'Aigrefeuille,Dans la partie haute du square de l'intendance du Languedoc.,34000,MONTPELLIER,20/10/2004,En extérieur,FicheMesure4933.pdf,Oui,0.0,Rue / Route / Parking,CSTB - Saint Martin d'Heres,1
37,4934,3.87583,43.61222,"03° 52' 33.00'' Est, 43° 36' 44.00'' Nord",34172,21 Rue de l'Aigrefeuille,Devant l'entrée de l'école Jean Jacques Rousseau.,34000,MONTPELLIER,20/10/2004,En extérieur,FicheMesure4934.pdf,Oui,0.0,Rue / Route / Parking,CSTB - Saint Martin d'Heres,1
38,4935,3.83889,43.617779999999996,"03° 50' 20.00'' Est, 43° 37' 04.00'' Nord",34172,Rue Rimbaud,Devant l'entrée de l'école maternelle G. BON.,34000,MONTPELLIER,19/10/2004,En extérieur,FicheMesure4935.pdf,Oui,0.0,Rue / Route / Parking,CSTB - Saint Martin d'Heres,1
39,4959,3.88194,43.59833,"03° 52' 55.00'' Est, 43° 35' 54.00'' Nord",34172,Impasse des Marmousets,Devant le portail de l'école maternelle S. Signoret.,34000,MONTPELLIER,20/10/2004,En extérieur,FicheMesure4959.pdf,Oui,0.0,Rue / Route / Parking,CSTB - Saint Martin d'Heres,1
40,4960,3.88389,43.59778,"03° 53' 02.00'' Est, 43° 35' 52.00'' Nord",34172,Rue des Marronniers,Devant l'entrée du collège G. Philippe.,34000,MONTPELLIER,20/10/2004,En extérieur,FicheMesure4960.pdf,Oui,0.0,Rue / Route / Parking,CSTB - Saint Martin d'Heres,1
41,4961,3.88361,43.59722,"03° 53' 01.00'' Est, 43° 35' 50.00'' Nord",34172,Rue des Marronniers,Devant les portails d'entrée du collège.,34000,MONTPELLIER,20/10/2004,En extérieur,FicheMesure4961.pdf,Oui,0.0,Rue / Route / Parking,CSTB - Saint Martin d'Heres,1
42,5002,3.4825,43.48361,"03° 28' 57.00'' Est, 43° 29' 01.00'' Nord",34162,15 Chemin de Cabanis,"Devant le portail d'entrée du N°15, sur le trottoir coté impair",34530,MONTAGNAC,20/10/2004,En extérieur,FicheMesure5002.pdf,Oui,1.15,Rue / Route / Parking,AEXPERTISE,1
43,5004,3.8825,43.60972,"03° 52' 57.00'' Est, 43° 36' 35.00'' Nord",34172,14 Avenue Frédéric Mistral,"Terrasse de Monsieur Savelli, 4éme étage",34000,MONTPELLIER,08/10/2004,En extérieur,FicheMesure5004.pdf,Oui,0.81,Divers,AEXPERTISE,1
44,5233,3.14111,43.3125,"03° 08' 28.00'' Est, 43° 18' 45.00'' Nord",34081,Rue des écoles,Ecole Maternelle et primaire de Colombiers,34440,COLOMBIERS,28/10/2004,En extérieur,FicheMesure5233.pdf,Oui,0.0,Rue / Route / Parking,BUREAU VERITAS - Marseille,1
45,5599,3.4852800000000004,43.3025,"03° 29' 07.00'' Est, 43° 18' 09.00'' Nord",34003,Boulevard Jean Moulin,"Collège Paul Emile Victor, à côté de l'entrée côté D32, route vers le Cap D'Agde.",34300,AGDE,19/01/2005,En extérieur,FicheMesure5599.pdf,Oui,1.54,Rue / Route / Parking,AEXPERTISE,1
46,5600,3.4836099999999997,43.31222,"03° 29' 01.00'' Est, 43° 18' 44.00'' Nord",34003,Rue Paul Balmigère,"Stade Louis Sanguin, entre le local technique de la ville d'Agde, et les terrains de tennis",34300,AGDE,19/01/2005,En extérieur,FicheMesure5600.pdf,Oui,0.85,Rue / Route / Parking,AEXPERTISE,1
47,5609,3.5133300000000003,43.283609999999996,"03° 30' 48.00'' Est, 43° 17' 01.00'' Nord",34003,Place de l'Agde Marine,Sur la place de l'Agde Marine.,34300,AGDE,31/01/2005,En extérieur,FicheMesure5609.pdf,Oui,0.6,Rue / Route / Parking,CSTB - Saint Martin d'Heres,1
48,5610,3.5133300000000003,43.284440000000004,"03° 30' 48.00'' Est, 43° 17' 04.00'' Nord",34003,Place A. Bertrand,Sur une place de parking de la place A. Bertrand.,34300,AGDE,31/01/2005,En extérieur,FicheMesure5610.pdf,Oui,0.0,Rue / Route / Parking,CSTB - Saint Martin d'Heres,1
49,5611,3.5147199999999996,43.28417,"03° 30' 53.00'' Est, 43° 17' 03.00'' Nord",34003,Rue des Sergents,Sur le parvis de l'annexe de la mairie.,34300,AGDE,31/01/2005,En extérieur,FicheMesure5611.pdf,Oui,0.0,Rue / Route / Parking,CSTB - Saint Martin d'Heres,1
50,5621,3.87972,43.75806,"03° 52' 47.00'' Est, 43° 45' 29.00'' Nord",34276,Les Avants,"Au pied du pylône, les Avants.",34270,SAINT-MATHIEU-DE-TREVIERS,01/02/2005,En extérieur,FicheMesure5621.pdf,Oui,0.58,Rue / Route / Parking,CSTB - Saint Martin d'Heres,1
51,5622,3.88056,43.759170000000005,"03° 52' 50.00'' Est, 43° 45' 33.00'' Nord",34276,12 Rue des Dryades,"Devant le n°12, les Dryades.",34270,SAINT-MATHIEU-DE-TREVIERS,01/02/2005,En extérieur,FicheMesure5622.pdf,Oui,0.0,Rue / Route / Parking,CSTB - Saint Martin d'Heres,1
52,5623,3.875,43.76028,"03° 52' 30.00'' Est, 43° 45' 37.00'' Nord",34276,Avenue du Grand Chêne,Au croisement de l'av. du Grand Chêne et de l'av. des Romarins.,34270,SAINT-MATHIEU-DE-TREVIERS,01/02/2005,En extérieur,FicheMesure5623.pdf,Oui,0.0,Rue / Route / Parking,CSTB - Saint Martin d'Heres,1
53,5803,3.81806,43.58139,"03° 49' 05.00'' Est, 43° 34' 53.00'' Nord",34270,1 Impasse des Joncs,Devant la villa de Mr Rebous,34430,SAINT-JEAN-DE-VEDAS,08/03/2005,En extérieur,FicheMesure5803.pdf,Oui,0.66,Rue / Route / Parking,BUREAU VERITAS - Marseille,1
54,6268,3.14167,43.31278,"03° 08' 30.00'' Est, 43° 18' 46.00'' Nord",34081,Rue des écoles,Terrain de basket et football de l'école,34440,COLOMBIERS,25/05/2005,En extérieur,FicheMesure6268.pdf,Oui,0.21,Rue / Route / Parking,BUREAU VERITAS - Marseille,1
55,6375,3.59361,43.43306,"03° 35' 37.00'' Est, 43° 25' 59.00'' Nord",34157,RN 113,"RN 113, devant proprièté de M Delmas et M Lassene",34140,MEZE,30/05/2005,En extérieur,FicheMesure6375.pdf,Oui,0.0,Rue / Route / Parking,AEXPERTISE,1
56,6456,3.68667,43.40806,"03° 41' 12.00'' Est, 43° 24' 29.00'' Nord",34301,Rue Salvador Allende,"Sur le trottoir,  à l'angle du bâtiment de l'ancienne agence.",34200,SETE,01/06/2005,En extérieur,FicheMesure6456.pdf,Oui,0.54,Rue / Route / Parking,CSTB - Saint Martin d'Heres,1
57,6807,3.84,43.60861,"03° 50' 24.00'' Est, 43° 36' 31.00'' Nord",34172,888 Rue François Dezeuze,Devant le portail d'entrée de l'immeuble.,34070,MONTPELLIER,19/08/2005,En extérieur,FicheMesure6807.pdf,Oui,0.22,Rue / Route / Parking,CSTB - Saint Martin d'Heres,1
58,7015,3.84,43.625,"03° 50' 24.00'' Est, 43° 37' 30.00'' Nord",34172,173 Rue Michel Teule,"Sur le parking du ""Parc d'Alco"".",34080,MONTPELLIER,17/10/2005,En extérieur,FicheMesure7015.pdf,Oui,0.47,Rue / Route / Parking,CSTB - Saint Martin d'Heres,1
59,7018,3.8416699999999997,43.6075,"03° 50' 30.00'' Est, 43° 36' 27.00'' Nord",34172,Avenue de la Colline,Devant l'entrée de l'EREA Jean Jacques Rousseau.,34070,MONTPELLIER,18/10/2005,En extérieur,FicheMesure7018.pdf,Oui,0.31,Rue / Route / Parking,CSTB - Saint Martin d'Heres,1
60,7019,3.84194,43.60667,"03° 50' 31.00'' Est, 43° 36' 24.00'' Nord",34172,270 Avenue de la Colline,En bordure du Lycée Professionnel de la Colline.,34070,MONTPELLIER,18/10/2005,En extérieur,FicheMesure7019.pdf,Oui,0.29,Rue / Route / Parking,CSTB - Saint Martin d'Heres,1
61,7020,3.8422199999999997,43.60611,"03° 50' 32.00'' Est, 43° 36' 22.00'' Nord",34172,36 Rue des Eglantiers,Devant l'entrée des logements du lycée.,34070,MONTPELLIER,18/10/2005,En extérieur,FicheMesure7020.pdf,Oui,0.65,Rue / Route / Parking,CSTB - Saint Martin d'Heres,1
62,7021,3.66,43.395559999999996,"03° 39' 36.00'' Est, 43° 23' 44.00'' Nord",34301,Avenue Jean Monnet,"Sur la terrasse de M. DUMONT au RDC, résidence ""La Corvette"".",34200,SETE,19/10/2005,En extérieur,FicheMesure7021.pdf,Oui,0.24,Rue / Route / Parking,CSTB - Saint Martin d'Heres,1
63,7022,3.6661099999999998,43.395559999999996,"03° 39' 58.00'' Est, 43° 23' 44.00'' Nord",34301,19 Boulevard Joliot Curie,Sous le préau du lycée Joliot Curie.,34200,SETE,19/10/2005,En extérieur,FicheMesure7022.pdf,Oui,0.29,Rue / Route / Parking,CSTB - Saint Martin d'Heres,1
64,7168,3.8852800000000003,43.60611,"03° 53' 07.00'' Est, 43° 36' 22.00'' Nord",34172,24 Avenue du Pont Juvenal,Sur le trottoir en face de l'école de formation FORMATEP-ETEC,34000,MONTPELLIER,16/11/2005,En extérieur,FicheMesure7168.pdf,Oui,0.0,Rue / Route / Parking,AEXPERTISE,1
65,7169,3.8847199999999997,43.60722,"03° 53' 05.00'' Est, 43° 36' 26.00'' Nord",34172,Avenue des Etats du Languedoc,"A l'arrière de la cours de la crêche Antigone, à coté de la cabine téléphonique",34000,MONTPELLIER,16/11/2005,En extérieur,FicheMesure7169.pdf,Oui,0.0,Rue / Route / Parking,AEXPERTISE,1
66,7306,3.87194,43.60778,"03° 52' 19.00'' Est, 43° 36' 28.00'' Nord",34172,Rue des Soldats,Le long de l'enceinte de l'école.,34000,MONTPELLIER,08/12/2005,En extérieur,FicheMesure7306.pdf,Oui,0.0,Rue / Route / Parking,CSTB - Saint Martin d'Heres,1
67,7307,3.87111,43.60722,"03° 52' 16.00'' Est, 43° 36' 26.00'' Nord",34172,26 Cours Gambetta,Au pied de l'immeuble,34000,MONTPELLIER,08/12/2005,En extérieur,FicheMesure7307.pdf,Oui,0.0,Rue / Route / Parking,CSTB - Saint Martin d'Heres,1
68,7308,3.87111,43.60722,"03° 52' 16.00'' Est, 43° 36' 26.00'' Nord",34172,Cours Gambetta,Devant le bâtiment de la CRAM.,34000,MONTPELLIER,08/12/2005,En extérieur,FicheMesure7308.pdf,Oui,0.0,Rue / Route / Parking,CSTB - Saint Martin d'Heres,1
69,7309,3.89833,43.59167,"03° 53' 54.00'' Est, 43° 35' 30.00'' Nord",34172,Avenue du Docteur Jacques Fourcade,En bordure du complexe sportif de la Rauze.,34070,MONTPELLIER,09/12/2005,En extérieur,FicheMesure7309.pdf,Oui,0.0,Rue / Route / Parking,CSTB - Saint Martin d'Heres,1
70,7310,3.89361,43.59278,"03° 53' 37.00'' Est, 43° 35' 34.00'' Nord",34172,Rue de Saint Hilaire,"Devant l'entrée de ""Coste Peinture"".",34070,MONTPELLIER,09/12/2005,En extérieur,FicheMesure7310.pdf,Oui,0.0,Rue / Route / Parking,CSTB - Saint Martin d'Heres,1
71,7311,3.89667,43.59333,"03° 53' 48.00'' Est, 43° 35' 36.00'' Nord",34172,Rue de Saint Hilaire,Sur le parking de l'école maternelle Paul Eluard.,34070,MONTPELLIER,09/12/2005,En extérieur,FicheMesure7311.pdf,Oui,0.0,Rue / Route / Parking,CSTB - Saint Martin d'Heres,1
72,7760,3.81861,43.62361,"03° 49' 07.00'' Est, 43° 37' 25.00'' Nord",34172,53 Rue de Salamanque,Devant la stèle Groupe scolaire Salamanque,34080,MONTPELLIER,20/12/2005,En extérieur,FicheMesure7760.pdf,Oui,0.0,Rue / Route / Parking,AEXPERTISE,1
73,7761,3.8122199999999995,43.64,"03° 48' 44.00'' Est, 43° 38' 24.00'' Nord",34172,135 Allée des Hauts de Montpellier,"Au bord du stade, à côté du pylône d'éclairage près du club house Les Tristons",34080,MONTPELLIER,20/12/2005,En extérieur,FicheMesure7761.pdf,Oui,4.1,Divers,AEXPERTISE,1
74,7762,3.9083300000000003,43.611670000000004,"03° 54' 30.00'' Est, 43° 36' 42.00'' Nord",34172,175 Rue Edouard Villalonga,Sur le palier de la porte fenêtre de l'école Sarah Bernardt,34000,MONTPELLIER,19/12/2005,En extérieur,FicheMesure7762.pdf,Oui,0.64,Rue / Route / Parking,AEXPERTISE,1
75,7763,3.8891699999999996,43.610279999999996,"03° 53' 21.00'' Est, 43° 36' 37.00'' Nord",34172,528 Boulevard Antigone,"A l'angle de l'école élémentaire Périclès, côté boulevard Antigone",34000,MONTPELLIER,19/12/2005,En extérieur,FicheMesure7763.pdf,Oui,0.23,Rue / Route / Parking,AEXPERTISE,1
76,8054,3.83111,43.5775,"03° 49' 52.00'' Est, 43° 34' 39.00'' Nord",34270,1 Rue Bobby Lapointe,devant la porte d'entrée,34430,SAINT-JEAN-DE-VEDAS,25/01/2006,En extérieur,FicheMesure8054.pdf,Oui,1.44,Rue / Route / Parking,AEXPERTISE,1
77,8055,3.8288900000000003,43.568059999999996,"03° 49' 44.00'' Est, 43° 34' 05.00'' Nord",34270,2 Rue Du brucq,devant le portail du garage,34430,SAINT-JEAN-DE-VEDAS,25/01/2006,En extérieur,FicheMesure8055.pdf,Oui,2.46,Rue / Route / Parking,AEXPERTISE,1
78,8475,3.91028,43.65722,"03° 54' 37.00'' Est, 43° 39' 26.00'' Nord",34120,4 Rue Belvédère,devant le n°4 de la rue Belvédère,34830,JACOU,18/04/2006,En extérieur,FicheMesure8475.pdf,Oui,1.75,Rue / Route / Parking,AEXPERTISE,1
79,8488,3.69361,43.65028,"03° 41' 37.00'' Est, 43° 39' 01.00'' Nord",34163,Avenue Font Mosson,"Ecole Maternelle de Montarnaud, dans la cour, entre le préau et l'aire de jeu",34570,MONTARNAUD,17/05/2006,En extérieur,FicheMesure8488.pdf,Oui,0.35,Rue / Route / Parking,AEXPERTISE,1
80,8490,3.6975,43.65972,"03° 41' 51.00'' Est, 43° 39' 35.00'' Nord",34163,Lotissement Crouzette,"Devant le Collège Vincent Badie de Montarnaud, sur le trottoir, en face du parc à vélo",34570,MONTARNAUD,17/05/2006,En extérieur,FicheMesure8490.pdf,Oui,0.27,Rue / Route / Parking,AEXPERTISE,1
81,8495,3.85333,43.59111,"03° 51' 12.00'' Est, 43° 35' 28.00'' Nord",34172,3220 Boulevard Paul Valéry,"école supérieure des arts et des médias, en face du château d'eau, devant l'accès à la chaufferie",34000,MONTPELLIER,19/04/2006,En extérieur,FicheMesure8495.pdf,Oui,0.42,Rue / Route / Parking,AEXPERTISE,1
82,8496,3.85417,43.59083,"03° 51' 15.00'' Est, 43° 35' 27.00'' Nord",34172,3220 Boulevard Paul Valéry,"école supérieure des arts et des médias, à l'entrée du parking",34000,MONTPELLIER,19/04/2006,En extérieur,FicheMesure8496.pdf,Oui,0.4,Rue / Route / Parking,AEXPERTISE,1
83,8497,3.85333,43.59028,"03° 51' 12.00'' Est, 43° 35' 25.00'' Nord",34172,3220 Boulevard Paul Valéry,à l'angle sud est du bâtiment principal de l'école supérieur des arts et métiers,34000,MONTPELLIER,19/04/2006,En extérieur,FicheMesure8497.pdf,Oui,0.19,Rue / Route / Parking,AEXPERTISE,1
84,8503,3.8386099999999996,43.56361,"03° 50' 19.00'' Est, 43° 33' 49.00'' Nord",34270,Rue Saint Exupery,"Entreprise Unibeton, rue Saint Exupery, toit du silo annexe situé côté cabine de commande",34430,SAINT-JEAN-DE-VEDAS,20/04/2006,En extérieur,FicheMesure8503.pdf,Oui,2.68,Divers,AEXPERTISE,1
85,8505,3.8386099999999996,43.56361,"03° 50' 19.00'' Est, 43° 33' 49.00'' Nord",34270,Rue Saint Exupery,"Entreprise Unibeton, rue Saint Exupery, devant l'antrée de la salle de repos et devant la cabine de commande",34430,SAINT-JEAN-DE-VEDAS,20/04/2006,En extérieur,FicheMesure8505.pdf,Oui,0.27,Rue / Route / Parking,AEXPERTISE,1
86,9167,3.87806,43.60556,"03° 52' 41.00'' Est, 43° 36' 20.00'' Nord",34172,10 Rue du Général Lafon,Sur le trottoir devant l'entrée de l'école maternelle Anatole France.,34000,MONTPELLIER,16/08/2006,En extérieur,FicheMesure9167.pdf,Oui,0.24,Rue / Route / Parking,CSTB - Saint Martin d'Heres,1
87,9168,3.87806,43.60556,"03° 52' 41.00'' Est, 43° 36' 20.00'' Nord",34172,12 Rue Durand,Sur le trottoir devant la vitrine du magasin Galion-Import.,34000,MONTPELLIER,16/08/2006,En extérieur,FicheMesure9168.pdf,Oui,0.22,Rue / Route / Parking,CSTB - Saint Martin d'Heres,1
88,9169,3.87806,43.60556,"03° 52' 41.00'' Est, 43° 36' 20.00'' Nord",34172,16 Rue Durand,Sur le trottoir devant l'entrée du centre de formation cosmétique.,34000,MONTPELLIER,16/08/2006,En extérieur,FicheMesure9169.pdf,Oui,0.25,Rue / Route / Parking,CSTB - Saint Martin d'Heres,1
89,9524,3.82389,43.63361,"03° 49' 26.00'' Est, 43° 38' 01.00'' Nord",34172,Cour des Provinces,"Entre les entrées de n° 23 et 205, au pied des immeubles",34080,MONTPELLIER,05/10/2006,En extérieur,FicheMesure9524.pdf,Oui,0.23,Rue / Route / Parking,AEXPERTISE,1
90,9529,3.94556,43.57028,"03° 56' 44.00'' Est, 43° 34' 13.00'' Nord",34198,10 Rue du Château d'Eau,"Maison des Arts, devant l'entrée principale, côté rue Alphonse Daudet",34470,PEROLS,05/10/2006,En extérieur,FicheMesure9529.pdf,Oui,1.52,Rue / Route / Parking,AEXPERTISE,1
91,9907,3.68583,43.40194,"03° 41' 09.00'' Est, 43° 24' 07.00'' Nord",34301,Chemin Saint Clair,Sur le point de vue / terrasse du parking Saint Clair.,34200,SETE,30/11/2006,En extérieur,FicheMesure9907.pdf,Oui,8.44,Rue / Route / Parking,CSTB - Saint Martin d'Heres,0
92,10048,3.3716699999999995,43.509440000000005,"03° 22' 18.00'' Est, 43° 30' 34.00'' Nord",34063,Chemin de l'herbette,Devant le club house du stade de Caux,34720,CAUX,20/12/2006,En extérieur,FicheMesure10048.pdf,Oui,0.0,Divers,AEXPERTISE,1
93,10050,3.37889,43.50611,"03° 22' 44.00'' Est, 43° 30' 22.00'' Nord",34063,Route de Nizas,Au pied du pylône,34720,CAUX,20/12/2006,En extérieur,FicheMesure10050.pdf,Oui,2.23,Divers,AEXPERTISE,1
94,10061,3.83944,43.61694,"03° 50' 22.00'' Est, 43° 37' 01.00'' Nord",34172,623 Rue d'Alco,"Sur le parking de la résidence Cour des Ecoles, à côté de la cour de l'école maternelle Geneviève Bon",34080,MONTPELLIER,04/12/2006,En extérieur,FicheMesure10061.pdf,Oui,1.3,Rue / Route / Parking,AEXPERTISE,1
95,10062,3.83944,43.61611,"03° 50' 22.00'' Est, 43° 36' 58.00'' Nord",34172,623 Rue d'Alco,Entre le bâtiment 3 de la résidence Cour des Ecoles et le groupe scolaire Joseph Deltheil,34080,MONTPELLIER,04/12/2006,En extérieur,FicheMesure10062.pdf,Oui,0.81,Divers,AEXPERTISE,1
96,10063,3.86361,43.59278,"03° 51' 49.00'' Est, 43° 35' 34.00'' Nord",34172,Rue Jacqueline Maillan,"Quartier Croix d'argent, devant les garages",34070,MONTPELLIER,04/12/2006,En extérieur,FicheMesure10063.pdf,Oui,0.55,Rue / Route / Parking,AEXPERTISE,1
97,10064,3.865,43.593059999999994,"03° 51' 54.00'' Est, 43° 35' 35.00'' Nord",34172,Rue Louis Aragon,"Devant l'entrée de l'association à l'enfance, Quartier Croix d'Argent",34070,MONTPELLIER,04/12/2006,En extérieur,FicheMesure10064.pdf,Oui,0.0,Rue / Route / Parking,AEXPERTISE,1
98,10148,3.6075,43.42583,"03° 36' 27.00'' Est, 43° 25' 33.00'' Nord",34157,4 Rue Pierre Auguste Massaloup,"3ème étage, sur la terrasse à gauche",34140,MEZE,09/01/2007,En extérieur,FicheMesure10148.pdf,Oui,0.58,Divers,EMITECH-Montigny le Bretonneux,1
99,10669,3.8808300000000004,43.61611,"03° 52' 51.00'' Est, 43° 36' 58.00'' Nord",34172,Rue Lakanal,"Sur le trottoir, devant l'entrée du collège catholique La Salle.",34080,MONTPELLIER,07/03/2007,En extérieur,FicheMesure10669.pdf,Oui,0.0,Rue / Route / Parking,CSTB - Saint Martin d'Heres,1
100,10675,3.73889,43.79167,"03° 44' 20.00'' Est, 43° 47' 30.00'' Nord",34274,"Camping ""le Pic Saint Loup"", route du Pic Saint Loup","Sur le terrain de jeu, à côté de la terrasse du bar, à l'entrée du camping.",34380,SAINT-MARTIN-DE-LONDRES,08/03/2007,En extérieur,FicheMesure10675.pdf,Oui,0.37,Rue / Route / Parking,CSTB - Saint Martin d'Heres,1
101,10676,3.7402800000000003,43.7925,"03° 44' 25.00'' Est, 43° 47' 33.00'' Nord",34274,"Campind ""Pic Saint Loup"", route du Pic Saint Loup","Au croisement des deux chemins qui font le tour du camping, au fond du camping.",34380,SAINT-MARTIN-DE-LONDRES,08/03/2007,En extérieur,FicheMesure10676.pdf,Oui,0.0,Rue / Route / Parking,CSTB - Saint Martin d'Heres,1
102,11186,3.82778,43.613609999999994,"03° 49' 40.00'' Est, 43° 36' 49.00'' Nord",34172,Square Louis Carles,"Entre les deux bancs, devant l'école maternelle Pape Carpantier",34080,MONTPELLIER,18/04/2007,En extérieur,FicheMesure11186.pdf,Oui,2.47,Rue / Route / Parking,CSTB - Saint Martin d'Heres,1
103,11187,3.82944,43.61139,"03° 49' 46.00'' Est, 43° 36' 41.00'' Nord",34172,2 Allée des Grèzes - Résidence Les Oliviers,"Devant le banc, au milieu de la cour de la résidence.",34080,MONTPELLIER,18/04/2007,En extérieur,FicheMesure11187.pdf,Oui,2.8,Rue / Route / Parking,CSTB - Saint Martin d'Heres,1
104,11188,3.8297199999999996,43.611940000000004,"03° 49' 47.00'' Est, 43° 36' 43.00'' Nord",34172,Rue de la Croix,"A côté de la croix, derrière la résidence ""Les Oliviers"", rue de la Croix.",34080,MONTPELLIER,07/03/2007,En extérieur,FicheMesure11188.pdf,Oui,0.73,Rue / Route / Parking,CSTB - Saint Martin d'Heres,1
105,11664,3.88556,43.583059999999996,"03° 53' 08.00'' Est, 43° 34' 59.00'' Nord",34172,746 Avenue du Marché de la Gare,"sur le parking, à l'angle de la maison côté salon de Mme Gimenez",34070,MONTPELLIER,26/07/2007,En extérieur,FicheMesure11664.pdf,Oui,0.69,Rue / Route / Parking,AEXPERTISE,1
106,11813,3.8552800000000005,43.62222,"03° 51' 19.00'' Est, 43° 37' 20.00'' Nord",34172,Avenue du père Soulas,"Sur le parking, derrière le bâtiment E de la résidence ""le Cervantes""",34000,MONTPELLIER,01/08/2007,En extérieur,FicheMesure11813.pdf,Oui,0.49,Rue / Route / Parking,CSTB - Saint Martin d'Heres,1
107,11814,3.8555599999999997,43.623059999999995,"03° 51' 20.00'' Est, 43° 37' 23.00'' Nord",34172,1146 Avenue du père Soulas,A l'entrée du parking visiteur de l'institut de formation des écoles,34000,MONTPELLIER,01/08/2007,En extérieur,FicheMesure11814.pdf,Oui,0.0,Rue / Route / Parking,CSTB - Saint Martin d'Heres,1
108,12512,4.10139,43.56472,"04° 06' 05.00'' Est, 43° 33' 53.00'' Nord",34344,382 Rue Saint Louis,Les mesures ont été effectuées au niveau de la terrasse extérieure de l'appartement de M. THIBAULT,34280,LA GRANDE-MOTTE,07/01/2008,En extérieur,FicheMesure12512.pdf,Oui,1.43,Divers,APAVE Sudeurope (CETE) Tassin la Demi-Lune,1
109,12592,3.88389,43.63528,"03° 53' 02.00'' Est, 43° 38' 07.00'' Nord",34172,674 Rue Valery LARBAUD,Devant la VILLA EMILE,34090,MONTPELLIER,14/01/2008,En extérieur,FicheMesure12592.pdf,Oui,1.92,Rue / Route / Parking,EMITECH Chassieu,1
110,12773,3.88444,43.6075,"03° 53' 04.00'' Est, 43° 36' 27.00'' Nord",34172,11bis Rue Bayard,Devant le n° 11 bis de la rue Bayard,34000,MONTPELLIER,22/01/2008,En extérieur,FicheMesure12773.pdf,Oui,0.0,Rue / Route / Parking,AEXPERTISE,1
111,12778,3.8866699999999996,43.60861,"03° 53' 12.00'' Est, 43° 36' 31.00'' Nord",34172,Place Paul Bec,"Place Paul Bec, devant la statue d'Apollon",34000,MONTPELLIER,22/01/2008,En extérieur,FicheMesure12778.pdf,Oui,0.35,Rue / Route / Parking,AEXPERTISE,1
112,12896,3.8713900000000003,43.56028,"03° 52' 17.00'' Est, 43° 33' 37.00'' Nord",34129,10 Rue Mail,"Quartier Maurin, rue Mail, sur le parking, en face du n°10",34970,LATTES,25/01/2008,En extérieur,FicheMesure12896.pdf,Oui,1.73,Rue / Route / Parking,AEXPERTISE,1
113,12897,3.90639,43.57111,"03° 54' 23.00'' Est, 43° 34' 16.00'' Nord",34129,74 Impasse de l'Agau,"Impasse de l'Agau, devant le n°74",34970,LATTES,29/01/2008,En extérieur,FicheMesure12897.pdf,Oui,2.17,Rue / Route / Parking,AEXPERTISE,1
114,12898,3.9072199999999997,43.5675,"03° 54' 26.00'' Est, 43° 34' 03.00'' Nord",34129,Avenue de Pérols,"Dans le stade, devant les vestiaires",34970,LATTES,25/01/2008,En extérieur,FicheMesure12898.pdf,Oui,0.55,Divers,AEXPERTISE,1
115,12899,3.9180599999999997,43.56583,"03° 55' 05.00'' Est, 43° 33' 57.00'' Nord",34129,Route de Pérols," Complexe sportif de Fangouse, devant le courts n°8 ",34970,LATTES,25/01/2008,En extérieur,FicheMesure12899.pdf,Oui,0.64,Rue / Route / Parking,AEXPERTISE,1
116,13119,3.50306,43.6525,"03° 30' 11.00'' Est, 43° 39' 09.00'' Nord",34239,Avenue Léonce Gabaudan,"Château d'eau, sur le palier,  en bas de l'échelle Rïsoll ",34725,SAINT-ANDRE-DE-SANGONIS,03/03/2008,En extérieur,FicheMesure13119.pdf,Oui,1.15,Locaux professionnels non accessibles au public,AEXPERTISE,1
117,13120,3.50417,43.65278,"03° 30' 15.00'' Est, 43° 39' 10.00'' Nord",34239,Avenue Léonce Gabaudan,Devant le n°2,34725,SAINT-ANDRE-DE-SANGONIS,03/03/2008,En extérieur,FicheMesure13120.pdf,Oui,0.56,Rue / Route / Parking,AEXPERTISE,1
118,13121,3.50083,43.65333,"03° 30' 03.00'' Est, 43° 39' 12.00'' Nord",34239,Rue Pierre de Coubertin,"Complexe sportif Raymond Boisset, sur le parking",34725,SAINT-ANDRE-DE-SANGONIS,03/03/2008,En extérieur,FicheMesure13121.pdf,Oui,0.7,Rue / Route / Parking,AEXPERTISE,1
119,13491,3.07639,43.50972,"03° 04' 35.00'' Est, 43° 30' 35.00'' Nord",34279,Rue du Barry Haut,A l'angle de la rue du Barry Haut et du chemin de la Vernède,34490,SAINT-NAZAIRE-DE-LADAREZ,21/04/2008,En extérieur,FicheMesure13491.pdf,Oui,0.35,Rue / Route / Parking,AEXPERTISE,1
120,13553,3.85333,43.59083,"03° 51' 12.00'' Est, 43° 35' 27.00'' Nord",34172,3200 Boulevard Paul Valéry,Entre la porte Studio M et la chaufferie de l'école Studio M,34070,MONTPELLIER,19/05/2008,En extérieur,FicheMesure13553.pdf,Oui,0.56,Rue / Route / Parking,AEXPERTISE,1
121,13554,3.85278,43.59,"03° 51' 10.00'' Est, 43° 35' 24.00'' Nord",34172,3200 Boulevard Paul Valéry,Au fond du parking arrière de l'école Studio M,34070,MONTPELLIER,19/05/2008,En extérieur,FicheMesure13554.pdf,Oui,0.52,Rue / Route / Parking,AEXPERTISE,1
122,13555,3.8544400000000003,43.59111,"03° 51' 16.00'' Est, 43° 35' 28.00'' Nord",34172,3200 Boulevard Paul Valéry,A côté du portail de l'entrée de l'école Studio M,34070,MONTPELLIER,19/05/2008,En extérieur,FicheMesure13555.pdf,Oui,0.38,Rue / Route / Parking,AEXPERTISE,1
123,13556,3.8777800000000004,43.62972,"03° 52' 40.00'' Est, 43° 37' 47.00'' Nord",34172,Rue Cyrano de Bergerac,"A l'entrée de la copropriété, sur le parking de la Résidence Clolus III",34090,MONTPELLIER,20/05/2008,En extérieur,FicheMesure13556.pdf,Oui,1.07,Rue / Route / Parking,AEXPERTISE,1
124,13557,3.8802800000000004,43.628890000000006,"03° 52' 49.00'' Est, 43° 37' 44.00'' Nord",34172,Rue des Grives,Devant le n°1,34090,MONTPELLIER,20/05/2008,En extérieur,FicheMesure13557.pdf,Oui,0.86,Rue / Route / Parking,AEXPERTISE,1
125,13558,3.8875,43.626940000000005,"03° 53' 15.00'' Est, 43° 37' 37.00'' Nord",34172,Rue Philippe Castan,En face du n°115,34000,MONTPELLIER,20/05/2008,En extérieur,FicheMesure13558.pdf,Oui,0.0,Rue / Route / Parking,AEXPERTISE,1
126,13694,3.87083,43.608059999999995,"03° 52' 15.00'' Est, 43° 36' 29.00'' Nord",34172,Cours Gambetta,Entre la rue du Général Maureilhan et la rue du Général Maurin,34000,MONTPELLIER,20/05/2008,En extérieur,FicheMesure13694.pdf,Oui,0.78,Rue / Route / Parking,AEXPERTISE,1
127,13695,3.87083,43.60556,"03° 52' 15.00'' Est, 43° 36' 20.00'' Nord",34172,Rue Chaptal,A l'intersection avec la rue située entre l'impasse de la Gerbe et la rue Toiras,34000,MONTPELLIER,20/05/2008,En extérieur,FicheMesure13695.pdf,Oui,0.0,Rue / Route / Parking,AEXPERTISE,1
128,13696,3.8730599999999997,43.60778,"03° 52' 23.00'' Est, 43° 36' 28.00'' Nord",34172,Rue Paul Brousse,A l'angle de la rue Paul Brousse et de la rue Marceau,34000,MONTPELLIER,20/05/2008,En extérieur,FicheMesure13696.pdf,Oui,0.0,Rue / Route / Parking,AEXPERTISE,1
129,13873,3.2494400000000003,43.34861,"03° 14' 58.00'' Est, 43° 20' 55.00'' Nord",34032,45 Avenue de la Voie Domitienne,"Béziers Frigoulas, sur le parking arrière",34500,BEZIERS,23/06/2008,En extérieur,FicheMesure13873.pdf,Oui,0.71,Rue / Route / Parking,AEXPERTISE,1
130,14130,3.695,43.39861,"03° 41' 42.00'' Est, 43° 23' 55.00'' Nord",34301,Rue Lacan,"Ecole Colbert, dans la cour, au fond, entre la cabane et le toboggan",34200,SETE,24/07/2008,En extérieur,FicheMesure14130.pdf,Oui,0.0,Rue / Route / Parking,AEXPERTISE,1
131,14145,3.69611,43.399440000000006,"03° 41' 46.00'' Est, 43° 23' 58.00'' Nord",34301,Grand'Rue Mario Roustan,Devant la presse de la Marine,34200,SETE,24/07/2008,En extérieur,FicheMesure14145.pdf,Oui,0.0,Rue / Route / Parking,AEXPERTISE,1
132,14146,3.6702800000000004,43.41278,"03° 40' 13.00'' Est, 43° 24' 46.00'' Nord",34301,Rue du Bachaga Boualam,"Stade Louis Michel, dans la tribune officielle, devant le fauteuil 5, au dessus du tunnel",34200,SETE,24/07/2008,En extérieur,FicheMesure14146.pdf,Oui,0.67,Rue / Route / Parking,AEXPERTISE,1
133,14147,3.6708300000000005,43.41167,"03° 40' 15.00'' Est, 43° 24' 42.00'' Nord",34301,Rue du Bachaga Boualam,"Stade Louis Michel, sur le terrain synthétique, au pied du pylône",34200,SETE,24/07/2008,En extérieur,FicheMesure14147.pdf,Oui,1.16,Rue / Route / Parking,AEXPERTISE,1
134,14148,3.6711099999999997,43.41167,"03° 40' 16.00'' Est, 43° 24' 42.00'' Nord",34301,Rue du Bachaga Boualam,"Stade Louis Michel, dans la tribune prestige, devant le fauteuil, en haut des escaliers de la travée G",34200,SETE,24/07/2008,En extérieur,FicheMesure14148.pdf,Oui,1.09,Rue / Route / Parking,AEXPERTISE,1
135,14194,3.86361,43.62472,"03° 51' 49.00'' Est, 43° 37' 29.00'' Nord",34172,160 Avenue Sabatier d'Espeyran,Terrasse appartement 47,34090,MONTPELLIER,18/07/2008,En extérieur,FicheMesure14194.pdf,Oui,2.31,Divers,EMITECH Chassieu,1
136,14195,3.86361,43.62472,"03° 51' 49.00'' Est, 43° 37' 29.00'' Nord",34172,160 Avenue Sabatier d'Espeyran,Terrasse appartement 53,34090,MONTPELLIER,18/07/2008,En extérieur,FicheMesure14195.pdf,Oui,3.57,Divers,EMITECH Chassieu,1
137,14280,3.18,43.468059999999994,"03° 10' 48.00'' Est, 43° 28' 05.00'' Nord",34258,4 Cours Napoléon,"  Ecole Communal, dans la cour, devant les toboggans",34480,SAINT-GENIES-DE-FONTEDIT,23/06/2008,En extérieur,FicheMesure14280.pdf,Oui,0.3,Rue / Route / Parking,AEXPERTISE,1
138,14281,3.1838900000000003,43.47278,"03° 11' 02.00'' Est, 43° 28' 22.00'' Nord",34258,Rue de la Gachotte," Au bout de la rue, dans le virage",34480,SAINT-GENIES-DE-FONTEDIT,23/06/2008,En extérieur,FicheMesure14281.pdf,Oui,0.62,Rue / Route / Parking,AEXPERTISE,1
139,14282,3.1869400000000003,43.470279999999995,"03° 11' 13.00'' Est, 43° 28' 13.00'' Nord",34258,Rue des Pins,"Lotissement Les Balcons de Saint Génies, sur la parcelle du haut",34480,SAINT-GENIES-DE-FONTEDIT,23/06/2008,En extérieur,FicheMesure14282.pdf,Oui,0.35,Rue / Route / Parking,AEXPERTISE,1
140,14647,3.6841699999999995,43.40194,"03° 41' 03.00'' Est, 43° 24' 07.00'' Nord",34301,Chemin des Pierres Blanches,Devant le n°53,34200,SETE,14/10/2008,En extérieur,FicheMesure14647.pdf,Oui,5.71,Rue / Route / Parking,AEXPERTISE,1
141,14648,3.6847199999999996,43.4025,"03° 41' 05.00'' Est, 43° 24' 09.00'' Nord",34301,Chemin Saint Clair,"Sur le toit panoramique du bâtiment les Pères de la Salette, en haut de l'escalier",34200,SETE,14/10/2008,En extérieur,FicheMesure14648.pdf,Oui,8.03,Divers,AEXPERTISE,0
142,14688,3.68583,43.40222,"03° 41' 09.00'' Est, 43° 24' 08.00'' Nord",34301,Chemin Saint Clair,"Sur l'esplanade du belvédère, dans l'angle, côté pylône",34200,SETE,14/10/2008,En extérieur,FicheMesure14688.pdf,Oui,9.06,Divers,AEXPERTISE,0
143,14723,3.03278,43.36139,"03° 01' 58.00'' Est, 43° 21' 41.00'' Nord",34225,13 Chemin de Montfaucon,"Chez M. Gonzalez, sur la terrasse",34620,PUISSERGUIER,30/10/2008,En extérieur,FicheMesure14723.pdf,Oui,0.0,Divers,AEXPERTISE,1
144,14724,3.73806,43.895,"03° 44' 17.00'' Est, 43° 53' 42.00'' Nord",34243,Avenue du Chemin Neuf,En face de la rue du Croutou,34190,SAINT-BAUZILLE-DE-PUTOIS,29/10/2008,En extérieur,FicheMesure14724.pdf,Oui,1.11,Rue / Route / Parking,AEXPERTISE,1
145,14725,3.7366699999999997,43.895,"03° 44' 12.00'' Est, 43° 53' 42.00'' Nord",34243,Avenue du Croutou,Dans la cour de l'école Saint Baudille,34190,SAINT-BAUZILLE-DE-PUTOIS,29/10/2008,En extérieur,FicheMesure14725.pdf,Oui,0.0,Rue / Route / Parking,AEXPERTISE,1
146,14726,3.7352800000000004,43.89472,"03° 44' 07.00'' Est, 43° 53' 41.00'' Nord",34243,Place de l'Eglise,"Sur le parking, en face du n°37",34190,SAINT-BAUZILLE-DE-PUTOIS,29/10/2008,En extérieur,FicheMesure14726.pdf,Oui,0.55,Rue / Route / Parking,AEXPERTISE,1
147,14772,3.8544400000000003,43.53944,"03° 51' 16.00'' Est, 43° 32' 22.00'' Nord",34337,Avenue de la Gare,A côté du portail,34750,VILLENEUVE-LES-MAGUELONE,16/10/2008,En extérieur,FicheMesure14772.pdf,Oui,0.84,Rue / Route / Parking,AEXPERTISE,1
148,14773,3.8569400000000003,43.53694,"03° 51' 25.00'' Est, 43° 32' 13.00'' Nord",34337,Avenue Les Mélias,En face du N°5,34750,VILLENEUVE-LES-MAGUELONE,16/10/2008,En extérieur,FicheMesure14773.pdf,Oui,0.85,Rue / Route / Parking,AEXPERTISE,1
149,14774,3.8569400000000003,43.53694,"03° 51' 25.00'' Est, 43° 32' 13.00'' Nord",34337,Les Tombettes,Devant chez M. SALA,34750,VILLENEUVE-LES-MAGUELONE,16/10/2008,En extérieur,FicheMesure14774.pdf,Oui,0.41,Rue / Route / Parking,AEXPERTISE,1
150,14868,3.87417,43.60139,"03° 52' 27.00'' Est, 43° 36' 05.00'' Nord",34172,25-1 Rue Ernest Michel,"Résidence Longjumeau, 3ème étage, Mme Lopez, sur le balcon, devant la chambre 2",34000,MONTPELLIER,14/11/2008,En extérieur,FicheMesure14868.pdf,Oui,2.97,Divers,AEXPERTISE,1
151,14963,3.2319400000000003,43.33639,"03° 13' 55.00'' Est, 43° 20' 11.00'' Nord",34032,Rue Jean Mermoz,devant chez M. Hestroffer,34500,BEZIERS,28/11/2008,En extérieur,FicheMesure14963.pdf,Oui,1.62,Rue / Route / Parking,AEXPERTISE,1
152,15319,3.1025,43.389720000000004,"03° 06' 09.00'' Est, 43° 23' 23.00'' Nord",34069,Place MICHELET,Place MICHELET devant l'Ecole Elementaire St EXUPERY,34370,CAZOULS-LES-BEZIERS,15/09/2008,En extérieur,FicheMesure15319.pdf,Oui,0.32,Rue / Route / Parking,EMITECH Mesures Orgeval,1
153,15378,4.1816699999999996,43.66667,"04° 10' 54.00'' Est, 43° 40' 00.00'' Nord",34151,Chaussée du Vidourle,Devant le n°10,34590,MARSILLARGUES,13/01/2009,En extérieur,FicheMesure15378.pdf,Oui,0.96,Rue / Route / Parking,AEXPERTISE,1
154,15787,3.5083300000000004,43.69556,"03° 30' 30.00'' Est, 43° 41' 44.00'' Nord",34173,Impasse de la Route Neuve,Entre le n°5 et le n°1,34150,MONTPEYROUX,12/03/2009,En extérieur,FicheMesure15787.pdf,Oui,0.3,Rue / Route / Parking,AEXPERTISE,1
155,16108,3.20611,43.32694,"03° 12' 22.00'' Est, 43° 19' 37.00'' Nord",34032,2 Impasse du Henri Clouzot,"Chez M. SERIN, sur la terrasse située devant le salon",34500,BEZIERS,03/04/2009,En extérieur,FicheMesure16108.pdf,Oui,3.28,Divers,AEXPERTISE,1
156,16310,3.6841699999999995,43.40194,"03° 41' 03.00'' Est, 43° 24' 07.00'' Nord",34301,Chemin du Couchant,A l'intersection du chemin des Pierres Blanches et du chemin du Couchant,34200,SETE,04/05/2009,En extérieur,FicheMesure16310.pdf,Oui,2.9,Rue / Route / Parking,AEXPERTISE,1
157,16698,3.69611,43.465,"03° 41' 46.00'' Est, 43° 27' 54.00'' Nord",34024,Chemin des Myrtes,devant chez M. ROLLAND,34540,BALARUC-LE-VIEUX,11/06/2009,En extérieur,FicheMesure16698.pdf,Oui,0.73,Rue / Route / Parking,AEXPERTISE,1
158,16708,3.8555599999999997,43.63028,"03° 51' 20.00'' Est, 43° 37' 49.00'' Nord",34172,191 Avenue du Doyen Gaston Giraud,"CHRU de Montpellier, devant le bâtiment Service Social du Personnel, à l'extrémité Est du bâtiment",34000,MONTPELLIER,18/05/2009,En extérieur,FicheMesure16708.pdf,Oui,2.72,Rue / Route / Parking,AEXPERTISE,1
159,17035,3.87972,43.60972,"03° 52' 47.00'' Est, 43° 36' 35.00'' Nord",34172,16 Rue Jacques Coeur,"Résidence le Rivoli, Bâtiment B, au 5ème étage, chez Mme IMBERT, sur le balcon de la salle à manger",34000,MONTPELLIER,26/06/2009,En extérieur,FicheMesure17035.pdf,Oui,0.94,Divers,AEXPERTISE,1
160,17054,3.69056,43.4025,"03° 41' 26.00'' Est, 43° 24' 09.00'' Nord",34301,103 Rue de Belfort,"Chez M. CANTIN, dans l'angle de la terrasse, côté des antennes",34200,SETE,07/07/2009,En extérieur,FicheMesure17054.pdf,Oui,5.09,Divers,AEXPERTISE,1
161,17055,3.6708300000000005,43.41222,"03° 40' 15.00'' Est, 43° 24' 44.00'' Nord",34301,Rue du Bachaga Boualam,"Stade Louis Michel, tribune populaire, en haut de l'escalier de la travée I",34200,SETE,07/07/2009,En extérieur,FicheMesure17055.pdf,Oui,1.17,Divers,AEXPERTISE,1
162,17116,3.13056,43.29139,"03° 07' 50.00'' Est, 43° 17' 29.00'' Nord",34183,Rue de Terre Rousse,Devant l'entrée du Château d'eau,34440,NISSAN-LEZ-ENSERUNE,06/07/2009,En extérieur,FicheMesure17116.pdf,Oui,1.4,Rue / Route / Parking,AEXPERTISE,1
163,17437,3.8980599999999996,43.54306,"03° 53' 53.00'' Est, 43° 32' 35.00'' Nord",34129,mas des salins. Rte des 1ères cabanbes,Piste cyclable devant le Mas des Salins,34970,LATTES,09/07/2009,En extérieur,FicheMesure17437.pdf,Oui,2.24,Rue / Route / Parking,EMITECH Chassieu,1
164,17704,3.4875,43.30417,"03° 29' 15.00'' Est, 43° 18' 15.00'' Nord",34003,Avenue du Grand Large,Devant le Cabinet médical,34300,AGDE,03/08/2009,En extérieur,FicheMesure17704.pdf,Oui,1.65,Rue / Route / Parking,EMITECH Chassieu,1
165,17705,3.4872199999999998,43.303059999999995,"03° 29' 14.00'' Est, 43° 18' 11.00'' Nord",34003,10 Rue du Capitaine de Vaisseau Escande,Devant le Portail du numéro 10,34300,AGDE,03/08/2009,En extérieur,FicheMesure17705.pdf,Oui,1.36,Rue / Route / Parking,EMITECH Chassieu,1
166,17919,3.19806,43.33722,"03° 11' 53.00'' Est, 43° 20' 14.00'' Nord",34032,55 Avenue Pierre de Coubertin,"Coopérative Agricole Grap-Sud, dans la cour",34500,BEZIERS,11/09/2009,En extérieur,FicheMesure17919.pdf,Oui,1.32,Rue / Route / Parking,AEXPERTISE,1
167,17927,3.87333,43.654720000000005,"03° 52' 24.00'' Est, 43° 39' 17.00'' Nord",34077,Rond Point de Girac," Rond Point de Girac, devant les bureaux  d'ADA et de Carrefour Immobilier",34830,CLAPIERS,09/09/2009,En extérieur,FicheMesure17927.pdf,Oui,0.68,Rue / Route / Parking,AEXPERTISE,1
168,17949,3.84,43.608059999999995,"03° 50' 24.00'' Est, 43° 36' 29.00'' Nord",34172,Rue du Pont de Lavérune,"Dans le square François Dezeuze, sur l'aire de jeux pour enfants",34000,MONTPELLIER,09/09/2009,En extérieur,FicheMesure17949.pdf,Oui,0.62,Divers,AEXPERTISE,1
169,17952,3.33333,43.306940000000004,"03° 19' 60.00'' Est, 43° 18' 25.00'' Nord",34209,Rue du Bel Air,"Rue du Bel Air, en face du n°13, chez M. BARTHES",34420,PORTIRAGNES,08/09/2009,En extérieur,FicheMesure17952.pdf,Oui,1.21,Rue / Route / Parking,AEXPERTISE,1
170,17986,3.3602800000000004,43.42722,"03° 21' 37.00'' Est, 43° 25' 38.00'' Nord",34325,La Tour,"Lieu-dit La Tour, à 40 mètres au nord des antennes",34290,VALROS,11/09/2009,En extérieur,FicheMesure17986.pdf,Oui,1.84,Divers,AEXPERTISE,1
171,18128,3.28861,43.24917,"03° 17' 19.00'' Est, 43° 14' 57.00'' Nord",34324,10 Rue de la Soulane,devant le n°10 rue de Soulane,34350,VALRAS-PLAGE,30/09/2009,En extérieur,FicheMesure18128.pdf,Oui,0.79,Rue / Route / Parking,AEXPERTISE,1
172,18200,3.92806,43.58167,"03° 55' 41.00'' Est, 43° 34' 54.00'' Nord",34129,Route de Carnon,"Centre Commercial Grand Sud, sur le parking, côté Route de Carnon",34970,LATTES,10/09/2009,En extérieur,FicheMesure18200.pdf,Oui,2.46,Rue / Route / Parking,AEXPERTISE,1
173,18258,4.1241699999999994,43.67778,"04° 07' 27.00'' Est, 43° 40' 40.00'' Nord",34145,201 Rue de la Magnanerie,devant le n°201 rue de la Magnanerie,34400,LUNEL,29/09/2009,En extérieur,FicheMesure18258.pdf,Oui,1.17,Rue / Route / Parking,AEXPERTISE,1
174,18397,3.22972,43.36139,"03° 13' 47.00'' Est, 43° 21' 41.00'' Nord",34032,9 Rue des Terries,Balcon NORD,34500,BEZIERS,24/09/2009,En extérieur,FicheMesure18397.pdf,Oui,3.66,Divers,EMITECH Chassieu,1
175,18398,3.59361,43.433609999999994,"03° 35' 37.00'' Est, 43° 26' 01.00'' Nord",34157,9 Chemin du Cagne-Loup,Devant la maison de Mr DELAGRANGE,34140,MEZE,24/09/2009,En extérieur,FicheMesure18398.pdf,Oui,0.0,Rue / Route / Parking,EMITECH Chassieu,1
176,18400,3.8633300000000004,43.604440000000004,"03° 51' 48.00'' Est, 43° 36' 16.00'' Nord",34172,20bis Rue de CLARET,Résidence AQUITAINE - Appartement Mr PORCAR - Balcon SUD,34000,MONTPELLIER,25/09/2009,En extérieur,FicheMesure18400.pdf,Oui,5.38,Divers,EMITECH Chassieu,1
177,18425,3.8930599999999997,43.60472,"03° 53' 35.00'' Est, 43° 36' 17.00'' Nord",34172,3ter Chemin des Barques,"Au 4ème étage, chez M. SALVAT, sur le balcon",34000,MONTPELLIER,19/10/2009,En extérieur,FicheMesure18425.pdf,Oui,2.15,Divers,AEXPERTISE,1
178,18478,3.3105599999999997,43.32056,"03° 18' 38.00'' Est, 43° 19' 14.00'' Nord",34073,Chemin de Caylus,A l'intersection de la rue des Cévennes et du chemin de Caylus,34420,CERS,22/10/2009,En extérieur,FicheMesure18478.pdf,Oui,0.74,Rue / Route / Parking,AEXPERTISE,1
179,18539,3.6825,43.626940000000005,"03° 40' 57.00'' Est, 43° 37' 37.00'' Nord",34282,Chemin des Cadenedes,"Chez Mme MARTINEZ, au 1er étage, sur la terrasse",34570,SAINT-PAUL-ET-VALMALLE,12/10/2009,En extérieur,FicheMesure18539.pdf,Oui,1.9,Divers,AEXPERTISE,1
180,18659,3.89056,43.605,"03° 53' 26.00'' Est, 43° 36' 18.00'' Nord",34172,65 Avenue du Pont Juvénal,"Immeuble Le Britannia, 5ème étage, chez M. DELTOUR, sur la terrasse, devant le bureau",34000,MONTPELLIER,10/11/2009,En extérieur,FicheMesure18659.pdf,Oui,1.71,Divers,AEXPERTISE,1
181,18677,2.95444,43.57306,"02° 57' 16.00'' Est, 43° 34' 23.00'' Nord",34160,Mas de Rêmes,"M. BOUCHER, sur la terrasse arrière",34390,MONS,12/11/2009,En extérieur,FicheMesure18677.pdf,Oui,0.21,Divers,AEXPERTISE,1
182,18885,3.9047199999999997,43.628890000000006,"03° 54' 17.00'' Est, 43° 37' 44.00'' Nord",34057,5 Allée du Stade ,Vers terrains de TENNIS,34170,CASTELNAU-LE-LEZ,02/10/2009,En extérieur,FicheMesure18885.pdf,Oui,1.52,Divers,EMITECH Chassieu,1
183,18903,4.1241699999999994,43.67778,"04° 07' 27.00'' Est, 43° 40' 40.00'' Nord",34145,201 Rue de la Magnanerie,Devant le n°201 de la rue de la Magnanerie,34400,LUNEL,30/11/2009,En extérieur,FicheMesure18903.pdf,Oui,1.36,Rue / Route / Parking,AEXPERTISE,1
184,19104,3.8994400000000002,43.639720000000004,"03° 53' 58.00'' Est, 43° 38' 23.00'' Nord",34057,Rue des Amphores,Devant le n° 10 de la rue des Amphores,34170,CASTELNAU-LE-LEZ,11/12/2009,En extérieur,FicheMesure19104.pdf,Oui,0.95,Rue / Route / Parking,AEXPERTISE,1
185,19212,3.9272199999999997,43.63028,"03° 55' 38.00'' Est, 43° 37' 49.00'' Nord",34057,Chemin des Thermes,A l'intersection avec le chemin des Grès,34173,CASTELNAU-LE-LEZ,11/12/2009,En extérieur,FicheMesure19212.pdf,Oui,0.32,Rue / Route / Parking,AEXPERTISE,1
186,19444,3.21556,43.34472,"03° 12' 56.00'' Est, 43° 20' 41.00'' Nord",34032,Place de la Victoire,Devant le Théâtre,34500,BEZIERS,11/01/2010,En extérieur,FicheMesure19444.pdf,Oui,0.41,Rue / Route / Parking,AEXPERTISE,1
187,19591,3.85167,43.6125,"03° 51' 06.00'' Est, 43° 36' 45.00'' Nord",34172,11 Rue des Coronilles,Appartement n°77 - Terrasse,34070,MONTPELLIER,20/11/2009,En extérieur,FicheMesure19591.pdf,Oui,0.89,Divers,EMITECH Chassieu,1
188,19676,3.50556,43.64861,"03° 30' 20.00'' Est, 43° 38' 55.00'' Nord",34239,Rue du couvent,devant l'Ecole privée Jeanne d'arc,34725,SAINT-ANDRE-DE-SANGONIS,27/01/2010,En extérieur,FicheMesure19676.pdf,Oui,0.0,Rue / Route / Parking,AEXPERTISE,1
189,19680,3.50444,43.65194,"03° 30' 16.00'' Est, 43° 39' 07.00'' Nord",34239,Cours de la liberté,"Ecole primaire Randon, dans la cour, devant la classe E",34725,SAINT-ANDRE-DE-SANGONIS,27/01/2010,En extérieur,FicheMesure19680.pdf,Oui,0.52,Rue / Route / Parking,AEXPERTISE,1
190,19905,3.68444,43.40222,"03° 41' 04.00'' Est, 43° 24' 08.00'' Nord",34301,1321 Chemin de Saint-Clair,"Terrasse panoramique, au niveau de l'escalier, à l'angle situé côté chapelle (nord-ouest)",34200,SETE,09/02/2010,En extérieur,FicheMesure19905.pdf,Oui,9.05,Divers,AEXPERTISE,0
191,20067,3.40944,43.46028,"03° 24' 34.00'' Est, 43° 27' 37.00'' Nord",34199,Carrefour Marcel Paul,Devant le Centre de Secours Lieutenant René Peyre,34120,PEZENAS,23/02/2010,En extérieur,FicheMesure20067.pdf,Oui,0.7,Rue / Route / Parking,AEXPERTISE,1
192,20230,3.2547200000000003,43.29278,"03° 15' 17.00'' Est, 43° 17' 34.00'' Nord",34298,11 Avenue du Stade,"Institut Médico-Educatif Les Hirondelles, sur le parking, devant le futur bâtiment Administration",34410,SAUVIAN,18/03/2010,En extérieur,FicheMesure20230.pdf,Oui,0.75,Rue / Route / Parking,AEXPERTISE,1
193,20537,3.2055599999999997,43.32667,"03° 12' 20.00'' Est, 43° 19' 36.00'' Nord",34032,Impasse Henri Clouzot,en face du n°2 de l'impasse Henri Clouzot,34500,BEZIERS,14/04/2010,En extérieur,FicheMesure20537.pdf,Oui,1.5,Rue / Route / Parking,AEXPERTISE,1
194,20585,3.8383300000000005,43.56333,"03° 50' 18.00'' Est, 43° 33' 48.00'' Nord",34270,Rue Saint Exupéry,"Z.I. La Lauze, Unibéton, sur la passerelle de la tour de la centrale à béton, derrière l'antenne côté sud-est",34430,SAINT-JEAN-DE-VEDAS,15/04/2010,En extérieur,FicheMesure20585.pdf,Oui,2.69,Divers,AEXPERTISE,1
195,20586,3.83083,43.58361,"03° 49' 51.00'' Est, 43° 35' 01.00'' Nord",34270,Chemin des Oliviers,"Sur l'aire de jeux pour enfants, à côté de la table, entre les deux balançoires",34430,SAINT-JEAN-DE-VEDAS,15/04/2010,En extérieur,FicheMesure20586.pdf,Oui,1.96,Divers,AEXPERTISE,1
196,20647,3.8375,43.60556,"03° 50' 15.00'' Est, 43° 36' 20.00'' Nord",34172,Rue Viollet Le Duc,Ecole Elémentaire SPINOZA - Plateau d'évolution,34000,MONTPELLIER,24/03/2010,En extérieur,FicheMesure20647.pdf,Oui,1.61,Rue / Route / Parking,EMITECH Chassieu,1
197,20649,3.91917,43.5875,"03° 55' 09.00'' Est, 43° 35' 15.00'' Nord",34129,Rue du Mas de Portal,Parking face aux maisons numéro 5 et 7,34970,LATTES,24/03/2010,En extérieur,FicheMesure20649.pdf,Oui,0.68,Rue / Route / Parking,EMITECH Chassieu,1
198,20668,3.9594400000000003,43.57917,"03° 57' 34.00'' Est, 43° 34' 45.00'' Nord",34154,Aéroport de MONTPELLIER Méditerrannée,Aéroport MONTPELLIER - Secteur C - 1er étage - PIF N°2,34137,MAUGUIO,18/03/2010,En extérieur,FicheMesure20668.pdf,Oui,0.0,Divers,EMITECH Chassieu,1
199,20673,3.08639,43.58972,"03° 05' 11.00'' Est, 43° 35' 23.00'' Nord",34126,Lotissement Bois de Coubillou,Lotissement Bois de Coubillou - devant la maison num10,34240,LAMALOU-LES-BAINS,18/03/2010,En extérieur,FicheMesure20673.pdf,Oui,0.51,Rue / Route / Parking,EMITECH Chassieu,1
200,21095,4.02,43.73028,"04° 01' 12.00'' Est, 43° 43' 49.00'' Nord",34027,Rue de la coopérative,A l'angle du n°12 de la rue de la coopérative,34160,BEAULIEU,22/06/2010,En extérieur,FicheMesure21095.pdf,Oui,0.96,Rue / Route / Parking,AEXPERTISE,1
201,21184,3.8425,43.560559999999995,"03° 50' 33.00'' Est, 43° 33' 38.00'' Nord",34270,170 Rue Henri Farman,Devant l'entrée de SPIE,34430,SAINT-JEAN-DE-VEDAS,29/06/2010,En extérieur,FicheMesure21184.pdf,Oui,1.14,Rue / Route / Parking,AEXPERTISE,1
202,21185,3.8391699999999997,43.58167,"03° 50' 21.00'' Est, 43° 34' 54.00'' Nord",34270,Allée du Terral,"Stade Etienne VIDAL, le long du côté est du terrain en herbe, au milieu",34430,SAINT-JEAN-DE-VEDAS,30/06/2010,En extérieur,FicheMesure21185.pdf,Oui,1.59,Divers,AEXPERTISE,1
203,21186,3.8472199999999996,43.571670000000005,"03° 50' 50.00'' Est, 43° 34' 18.00'' Nord",34270,Avenue de la Condamine,"Centre Commercial Carrefour, devant l'entrée principale, côté sud-ouest du bâtiment",34430,SAINT-JEAN-DE-VEDAS,29/06/2010,En extérieur,FicheMesure21186.pdf,Oui,2.26,Rue / Route / Parking,AEXPERTISE,1
204,21187,3.8288900000000003,43.568059999999996,"03° 49' 44.00'' Est, 43° 34' 05.00'' Nord",34270,1 Rue du Brucq,devant le n° 1,34430,SAINT-JEAN-DE-VEDAS,30/06/2010,En extérieur,FicheMesure21187.pdf,Oui,1.81,Rue / Route / Parking,AEXPERTISE,1
205,21188,3.83111,43.57806,"03° 49' 52.00'' Est, 43° 34' 41.00'' Nord",34270,16 Rue Fon de l'Hospital,en face du n°16 ter,34430,SAINT-JEAN-DE-VEDAS,29/06/2010,En extérieur,FicheMesure21188.pdf,Oui,0.91,Rue / Route / Parking,AEXPERTISE,1
206,21200,3.5002800000000005,43.653059999999996,"03° 30' 01.00'' Est, 43° 39' 11.00'' Nord",34239,Rue Pierre de Coubertin,"Résidence de retraite Yves Couzy, sur le parking",34725,SAINT-ANDRE-DE-SANGONIS,27/01/2010,En extérieur,FicheMesure21200.pdf,Oui,1.0,Rue / Route / Parking,AEXPERTISE,1
207,21541,3.5194400000000003,43.282779999999995,"03° 31' 10.00'' Est, 43° 16' 58.00'' Nord",34003,Place du Môle,"En face de la pizzeria Chez le Libanais, à côté du banc",34300,AGDE,26/08/2010,En extérieur,FicheMesure21541.pdf,Oui,3.34,Rue / Route / Parking,AEXPERTISE,1
208,21602,3.23417,43.35583,"03° 14' 03.00'' Est, 43° 21' 21.00'' Nord",34032,Boulevard du Languedoc,"École Élémentaire Pasteur, sur le terrain de basket-ball, devant l'entrée II",34500,BEZIERS,06/09/2010,En extérieur,FicheMesure21602.pdf,Oui,1.21,Rue / Route / Parking,AEXPERTISE,1
209,21605,3.2288900000000003,43.34472,"03° 13' 44.00'' Est, 43° 20' 41.00'' Nord",34032,Rue du Docteur Charcot,A l'intersection de la rue du Docteur Charcot et de la rue du Docteur Roux,34500,BEZIERS,06/09/2010,En extérieur,FicheMesure21605.pdf,Oui,2.44,Rue / Route / Parking,AEXPERTISE,1
210,21606,3.25306,43.336940000000006,"03° 15' 11.00'' Est, 43° 20' 13.00'' Nord",34032,Rue Jacques Balmat,Devant l'entrée de l'Ecole maternelle Les Oliviers,34500,BEZIERS,06/09/2010,En extérieur,FicheMesure21606.pdf,Oui,0.73,Rue / Route / Parking,AEXPERTISE,1
211,22069,3.71472,43.93528,"03° 42' 53.00'' Est, 43° 56' 07.00'' Nord",34111,40 Rue du Tirondel,"Chez M. TRAVIER, devant le barbecue",34190,GANGES,23/11/2010,En extérieur,FicheMesure22069.pdf,Oui,0.81,Divers,AEXPERTISE,1
212,22361,3.19722,43.336940000000006,"03° 11' 50.00'' Est, 43° 20' 13.00'' Nord",34032,55 Avenue Pierre de Coubertin,à côté du poteau face au court de tennis sur le terrain n°6,34500,BEZIERS,18/05/2010,En extérieur,FicheMesure22361.pdf,Oui,1.08,Divers,EMITECH Chassieu,1
213,22362,3.2536099999999997,43.34472,"03° 15' 13.00'' Est, 43° 20' 41.00'' Nord",34032,Rue Raoul Bayou,aire de jeux centre aéré Saint André,34500,BEZIERS,20/05/2010,En extérieur,FicheMesure22362.pdf,Oui,0.0,Divers,EMITECH Chassieu,1
214,22363,3.2325,43.33611,"03° 13' 57.00'' Est, 43° 20' 10.00'' Nord",34032,31-33 Rue Louis Carayon,Mesure au 33 rue Louis Carayon,34500,BEZIERS,18/05/2010,En extérieur,FicheMesure22363.pdf,Oui,1.45,Rue / Route / Parking,EMITECH Chassieu,1
215,22446,3.2319400000000003,43.35139,"03° 13' 55.00'' Est, 43° 21' 05.00'' Nord",34032,Rue Ferdinand De Lesseps,"Espace Jean Moulin, à l'angle du bâtiment, côté entrée parking",34500,BEZIERS,27/01/2011,En extérieur,FicheMesure22446.pdf,Oui,0.45,Rue / Route / Parking,AEXPERTISE,1
216,22460,3.225,43.465559999999996,"03° 13' 30.00'' Est, 43° 27' 56.00'' Nord",34147,Rue de l'Egalité,A l'intersection entre l'impasse du Bois de Nine et la rue de l'Egalité,34480,MAGALAS,01/02/2011,En extérieur,FicheMesure22460.pdf,Oui,0.34,Rue / Route / Parking,AEXPERTISE,1
217,22555,3.22667,43.3375,"03° 13' 36.00'' Est, 43° 20' 15.00'' Nord",34032,Rue François Feynes,"Sur l'aire de jeux Herriot, en contrebas de la cour de l'école Herriot",34500,BEZIERS,10/02/2011,En extérieur,FicheMesure22555.pdf,Oui,0.35,Rue / Route / Parking,AEXPERTISE,1
218,22804,3.69639,43.39917,"03° 41' 47.00'' Est, 43° 23' 57.00'' Nord",34301,Grand'rue Mario Roustan,"Square Sissi Abellan, devant l'entrée du n°75 bis",34200,SETE,28/03/2011,En extérieur,FicheMesure22804.pdf,Oui,0.62,Rue / Route / Parking,AEXPERTISE,1
219,22865,3.30306,43.43278,"03° 18' 11.00'' Est, 43° 25' 58.00'' Nord",34300,Avenue d'Abeilhan,A l'intersection entre l'avenue de la Pinède et l'avenue d'Abeilhan,34290,SERVIAN,06/04/2011,En extérieur,FicheMesure22865.pdf,Oui,0.73,Rue / Route / Parking,AEXPERTISE,1
220,22895,3.21333,43.34278,"03° 12' 48.00'' Est, 43° 20' 34.00'' Nord",34032,Place Gabriel Péri,"Hôtel de Ville, 1er étage, sur le balcon de la salle Beffroi",34500,BEZIERS,04/04/2011,En extérieur,FicheMesure22895.pdf,Oui,0.0,Divers,AEXPERTISE,1
221,22934,3.92444,43.68306,"03° 55' 28.00'' Est, 43° 40' 59.00'' Nord",34309,Rue de l'Eglise,"Sur la place, en face de l'entrée de l'Eglise",34820,TEYRAN,11/04/2011,En extérieur,FicheMesure22934.pdf,Oui,0.43,Rue / Route / Parking,AEXPERTISE,1
222,22976,3.13889,43.31472,"03° 08' 20.00'' Est, 43° 18' 53.00'' Nord",34081,Place du Presbytère,Devant le n°2 de la place du Presbytère,34440,COLOMBIERS,11/04/2011,En extérieur,FicheMesure22976.pdf,Oui,2.17,Rue / Route / Parking,AEXPERTISE,1
223,23085,3.8841699999999997,43.61472,"03° 53' 03.00'' Est, 43° 36' 53.00'' Nord",34172,8 Avenue de Saint Maur,"Résidence Le Verdanson, devant le bâtiment A, côté parking",34000,MONTPELLIER,04/05/2011,En extérieur,FicheMesure23085.pdf,Oui,1.21,Rue / Route / Parking,AEXPERTISE,1
224,23142,3.23083,43.350559999999994,"03° 13' 51.00'' Est, 43° 21' 02.00'' Nord",34032,4 Rue Ferdinand de Lesseps,"Villa Matisse, 3ème étage, Appartement 403, Mme RUIZ, sur le balcon de la chambre 2",34500,BEZIERS,16/05/2011,En extérieur,FicheMesure23142.pdf,Oui,0.36,Divers,AEXPERTISE,1
225,23311,3.9272199999999997,43.68278,"03° 55' 38.00'' Est, 43° 40' 58.00'' Nord",34309,Place de l?Europe,Devant la Cantine de l'École primaire Jules Ferry,34820,TEYRAN,07/06/2011,En extérieur,FicheMesure23311.pdf,Oui,0.36,Rue / Route / Parking,AEXPERTISE,1
226,23465,3.4872199999999998,43.30417,"03° 29' 14.00'' Est, 43° 18' 15.00'' Nord",34003,Avenue du Grand Large,En face du Cabinet médical du Grand Large,34300,AGDE,11/07/2011,En extérieur,FicheMesure23465.pdf,Oui,2.27,Rue / Route / Parking,AEXPERTISE,1
227,23477,3.93278,43.64806,"03° 55' 58.00'' Est, 43° 38' 53.00'' Nord",34090,Voie Domitienne,"Stade Municipal, entre les bancs des remplacants",34920,LE CRES,04/07/2011,En extérieur,FicheMesure23477.pdf,Oui,0.84,Divers,AEXPERTISE,1
228,23504,3.86778,43.69556,"03° 52' 04.00'' Est, 43° 41' 44.00'' Nord",34217,Rue du Château d'eau,Entre le château d'eau et le pylône Bouygues Telecom,34730,PRADES-LE-LEZ,04/07/2011,En extérieur,FicheMesure23504.pdf,Oui,1.3,Rue / Route / Parking,AEXPERTISE,1
229,23696,3.21222,43.34194,"03° 12' 44.00'' Est, 43° 20' 31.00'' Nord",34032,1 Impasse de la Notairie,"Mme GARÇON, 4ème étage, sur la terrasse haute",34500,BEZIERS,28/07/2011,En extérieur,FicheMesure23696.pdf,Oui,4.35,Divers,AEXPERTISE,1
230,23936,3.88306,43.60889,"03° 52' 59.00'' Est, 43° 36' 32.00'' Nord",34172,52 Allée Jules Milhau,"Résidence Le Triangle, 14ème étage, chez M. CAUMETTE, sur la terrasse de la chambre située à l'étage du duplex",34000,MONTPELLIER,05/04/2011,En extérieur,FicheMesure23936.pdf,Oui,1.23,Divers,AEXPERTISE,1
231,24187,3.19611,43.33583,"03° 11' 46.00'' Est, 43° 20' 09.00'' Nord",34032,Avenue Pierre de Coubertin,"Complexe sportif de la Présidente, entre le terrain n°4 et le terrain principal, côté voie ferrée",34500,BEZIERS,13/10/2011,En extérieur,FicheMesure24187.pdf,Oui,1.81,Rue / Route / Parking,AEXPERTISE,1
232,24221,3.2288900000000003,43.34472,"03° 13' 44.00'' Est, 43° 20' 41.00'' Nord",34032,Rue du Docteur Charcot,A l'intersection avec la rue du Docteur Roux,34500,BEZIERS,12/10/2011,En extérieur,FicheMesure24221.pdf,Oui,2.41,Rue / Route / Parking,AEXPERTISE,1
233,24222,3.2483299999999997,43.34778,"03° 14' 54.00'' Est, 43° 20' 52.00'' Nord",34032,Rue Gérard Philipe,Devant l'entrée du Forum,34500,BEZIERS,12/10/2011,En extérieur,FicheMesure24222.pdf,Oui,1.75,Rue / Route / Parking,AEXPERTISE,1
234,24223,3.2347200000000003,43.33556,"03° 14' 05.00'' Est, 43° 20' 08.00'' Nord",34032,Rue Louis Carayon,Devant le n°8 rue Louis Carayon,34500,BEZIERS,12/10/2011,En extérieur,FicheMesure24223.pdf,Oui,1.16,Rue / Route / Parking,AEXPERTISE,1
235,24260,3.98083,43.73361,"03° 58' 51.00'' Est, 43° 44' 01.00'' Nord",34249,Rue du Parc,"Parc Municipal, devant la buvette",34160,SAINT-DREZERY,24/10/2011,En extérieur,FicheMesure24260.pdf,Oui,0.56,Divers,AEXPERTISE,1
236,24355,3.2055599999999997,43.32667,"03° 12' 20.00'' Est, 43° 19' 36.00'' Nord",34032,2 Impasse Henri Clouzot,En face du n°2 de l'impasse Henri Clouzot,34500,BEZIERS,25/10/2011,En extérieur,FicheMesure24355.pdf,Oui,1.77,Rue / Route / Parking,AEXPERTISE,1
237,24357,3.20778,43.35,"03° 12' 28.00'' Est, 43° 21' 00.00'' Nord",34032,28 Rue de l'Etourneau,Devant le n°28 de la rue de l'Etourneau,34500,BEZIERS,25/10/2011,En extérieur,FicheMesure24357.pdf,Oui,1.64,Rue / Route / Parking,AEXPERTISE,1
238,24395,3.2175,43.341390000000004,"03° 13' 03.00'' Est, 43° 20' 29.00'' Nord",34032,Allée Allées Paul Riquet,En face de la Pharmacie des Allées,34500,BEZIERS,26/10/2011,En extérieur,FicheMesure24395.pdf,Oui,1.51,Rue / Route / Parking,AEXPERTISE,1
239,24397,3.22167,43.35028,"03° 13' 18.00'' Est, 43° 21' 01.00'' Nord",34032,Rue Antoine Condorcet,En face du n°6 de la rue Antoine Condorcet,34500,BEZIERS,26/10/2011,En extérieur,FicheMesure24397.pdf,Oui,1.33,Rue / Route / Parking,AEXPERTISE,1
240,24402,3.21806,43.34778,"03° 13' 05.00'' Est, 43° 20' 52.00'' Nord",34032,Rue d'Arcole,Devant le n°13 rue d'Arcole,34500,BEZIERS,26/10/2011,En extérieur,FicheMesure24402.pdf,Oui,1.37,Rue / Route / Parking,AEXPERTISE,1
241,24403,3.22722,43.352779999999996,"03° 13' 38.00'' Est, 43° 21' 10.00'' Nord",34032,Rue du Rouat,Dans le parc situé au sud-ouest du square du Rouat,34500,BEZIERS,25/10/2011,En extérieur,FicheMesure24403.pdf,Oui,1.01,Divers,AEXPERTISE,1
242,24750,3.50944,43.29139,"03° 30' 34.00'' Est, 43° 17' 29.00'' Nord",34003,Avenue de la Vigne,"Les Maisons du Cap, en face du n°5",34300,AGDE,07/12/2011,En extérieur,FicheMesure24750.pdf,Oui,1.0,Rue / Route / Parking,AEXPERTISE,1
243,24886,3.975,43.54306,"03° 58' 30.00'' Est, 43° 32' 35.00'' Nord",34154,Place Cassan,En face de la résidence Le Viking,34130,MAUGUIO,24/01/2012,En extérieur,FicheMesure24886.pdf,Oui,1.75,Rue / Route / Parking,AEXPERTISE,1
244,24944,3.2055599999999997,43.32667,"03° 12' 20.00'' Est, 43° 19' 36.00'' Nord",34032,Impasse Henri Clouzot,En face du n°2,34500,BEZIERS,31/01/2012,En extérieur,FicheMesure24944.pdf,Oui,1.67,Rue / Route / Parking,AEXPERTISE,1
245,24992,3.83472,43.59972,"03° 50' 05.00'' Est, 43° 35' 59.00'' Nord",34172,120 Rue du Mas de Prunet,"Centre Bourneville ADAGES, entre le bâtiment École et la rue des Bouisses",34000,MONTPELLIER,23/01/2012,En extérieur,FicheMesure24992.pdf,Oui,1.06,Divers,AEXPERTISE,1
246,25104,3.69889,43.403890000000004,"03° 41' 56.00'' Est, 43° 24' 14.00'' Nord",34301,20 Rue Maurice Clavel,"Résidence Le Chai Saint-Louis, bâtiment B, au 4ème étage, Appartement 244, chez Mme OTTIÉ, sur la terrasse, devant la cuisine",34200,SETE,23/01/2012,En extérieur,FicheMesure25104.pdf,Oui,1.84,Divers,AEXPERTISE,1
247,25117,3.2705599999999997,43.5225,"03° 16' 14.00'' Est, 43° 31' 21.00'' Nord",34109,Chemin de Mont Counil,"Chez M. CORBIERE, sur le chemin, à 20 mètres au sud-est du pylône",34320,GABIAN,05/12/2011,En extérieur,FicheMesure25117.pdf,Oui,1.85,Divers,AEXPERTISE,1
248,25120,3.8475,43.62278,"03° 50' 51.00'' Est, 43° 37' 22.00'' Nord",34172,Rue de Casseyrols,"Devant la résidence l'Hermitage (n°316), à l'angle sud du bâtiment A.",34000,MONTPELLIER,26/01/2012,En extérieur,FicheMesure25120.pdf,Oui,1.09,Rue / Route / Parking,AEXPERTISE,1
249,25163,3.76111,43.44167,"03° 45' 40.00'' Est, 43° 26' 30.00'' Nord",34108,Avenue 81ème Régiment d'Infanterie,"Stade Lucien Jean, devant le Club House",34110,FRONTIGNAN,27/02/2012,En extérieur,FicheMesure25163.pdf,Oui,0.66,Rue / Route / Parking,AEXPERTISE,1
250,25164,3.72,43.941109999999995,"03° 43' 12.00'' Est, 43° 56' 28.00'' Nord",34111,27 Rue du Cers,Devant le n°27 rue du Cers,34190,GANGES,30/11/2011,En extérieur,FicheMesure25164.pdf,Oui,0.5,Rue / Route / Parking,AEXPERTISE,1
251,25165,3.7775,43.433890000000005,"03° 46' 39.00'' Est, 43° 26' 02.00'' Nord",34108,Avenue de Lesseps,"Port de Plaisance, devant la résidence La Galiote",34110,FRONTIGNAN,29/02/2012,En extérieur,FicheMesure25165.pdf,Oui,1.04,Rue / Route / Parking,AEXPERTISE,1
252,25166,3.75694,43.45028,"03° 45' 25.00'' Est, 43° 27' 01.00'' Nord",34108,11bis Avenue des Jardiniers,Devant le n°11 bis,34110,FRONTIGNAN,27/02/2012,En extérieur,FicheMesure25166.pdf,Oui,0.64,Rue / Route / Parking,AEXPERTISE,1
253,25167,3.79167,43.44083,"03° 47' 30.00'' Est, 43° 26' 27.00'' Nord",34108,163 Avenue Ferdinand de Lesseps,Devant le n°163,34110,FRONTIGNAN,27/02/2012,En extérieur,FicheMesure25167.pdf,Oui,1.62,Rue / Route / Parking,AEXPERTISE,1
254,25168,3.7269400000000004,43.43111,"03° 43' 37.00'' Est, 43° 25' 52.00'' Nord",34108,Chemin du Mas de Chave,En face de l'entrée du lotissement Le CLos des Oliviers,34110,FRONTIGNAN,29/02/2012,En extérieur,FicheMesure25168.pdf,Oui,1.95,Rue / Route / Parking,AEXPERTISE,1
255,25169,3.74556,43.45139,"03° 44' 44.00'' Est, 43° 27' 05.00'' Nord",34108,24 Rue des Collines,devant le n° 24,34110,FRONTIGNAN,28/02/2012,En extérieur,FicheMesure25169.pdf,Oui,1.64,Rue / Route / Parking,AEXPERTISE,1
256,25170,3.75,43.45389,"03° 45' 00.00'' Est, 43° 27' 14.00'' Nord",34108,14 Impasse des Pinsons,"devant le n°14, au niveau de l'intersection avec la rue Maurice Clavel",34110,FRONTIGNAN,28/02/2012,En extérieur,FicheMesure25170.pdf,Oui,1.4,Rue / Route / Parking,AEXPERTISE,1
257,25171,3.74556,43.443059999999996,"03° 44' 44.00'' Est, 43° 26' 35.00'' Nord",34108,22 Rue du Grenache,en face du n°22,34110,FRONTIGNAN,28/02/2012,En extérieur,FicheMesure25171.pdf,Oui,1.24,Rue / Route / Parking,AEXPERTISE,1
258,25172,3.7263900000000003,43.4275,"03° 43' 35.00'' Est, 43° 25' 39.00'' Nord",34108,22 Route de Balaruc,"au niveau du n°22, devant le parvis de l'église",34110,FRONTIGNAN,29/02/2012,En extérieur,FicheMesure25172.pdf,Oui,1.68,Rue / Route / Parking,AEXPERTISE,1
259,25200,3.6991699999999996,43.40833,"03° 41' 57.00'' Est, 43° 24' 30.00'' Nord",34301,20 Impasse Gaffinel,Devant l'entrée du Collège Victor Hugo (n°20),34200,SETE,24/02/2012,En extérieur,FicheMesure25200.pdf,Oui,0.0,Rue / Route / Parking,AEXPERTISE,1
260,25570,4.03806,43.64778,"04° 02' 17.00'' Est, 43° 38' 52.00'' Nord",34176,Rue des Carriérettes,"Ecole Maxime Evdokimoff, dans la cour, au niveau de la 3ème porte de garage",34130,MUDAISON,25/04/2012,En extérieur,FicheMesure25570.pdf,Oui,0.72,Rue / Route / Parking,AEXPERTISE,1
261,25616,3.2258299999999998,43.26944,"03° 13' 33.00'' Est, 43° 16' 10.00'' Nord",34329,Avenue Bel Air,"Les Terrasses de l'Eglise, au pied du clocher",34350,VENDRES,16/05/2012,En extérieur,FicheMesure25616.pdf,Oui,0.17,Rue / Route / Parking,AEXPERTISE,1
262,25645,3.67889,43.39417,"03° 40' 44.00'' Est, 43° 23' 39.00'' Nord",34301,Promenade Maréchal Leclerc,"Devant le n°1432, au niveau du terrain de pétanque",34200,SETE,15/05/2012,En extérieur,FicheMesure25645.pdf,Oui,1.82,Rue / Route / Parking,AEXPERTISE,1
263,25649,3.34389,43.4675,"03° 20' 38.00'' Est, 43° 28' 03.00'' Nord",34009,27 Rue de la Guissaume,"Cave Coopérative d'Alignan-du-Vent, sur le toit-terrasse, à l'angle est, devant la cuve blanche",34290,ALIGNAN-DU-VENT,16/05/2012,En extérieur,FicheMesure25649.pdf,Oui,1.73,Divers,AEXPERTISE,1
264,25657,3.90556,43.61056,"03° 54' 20.00'' Est, 43° 36' 38.00'' Nord",34172,Rue des Frères Lumière,"Etap Hôtel, dans le parking, sur la place PMR ouest (site éteint) ",34000,MONTPELLIER,14/05/2012,En extérieur,FicheMesure25657.pdf,Oui,0.0,Rue / Route / Parking,AEXPERTISE,1
265,25658,3.90556,43.61056,"03° 54' 20.00'' Est, 43° 36' 38.00'' Nord",34172,Rue des Frères Lumière,"Etap Hôtel, dans le parking, sur la place PMR ouest (site allumé)",34000,MONTPELLIER,14/05/2012,En extérieur,FicheMesure25658.pdf,Oui,0.59,Rue / Route / Parking,AEXPERTISE,1
266,25662,3.2311099999999997,43.350559999999994,"03° 13' 52.00'' Est, 43° 21' 02.00'' Nord",34032,4 Rue Ferdinand de Lesseps,"Villa Matisse, au 3ème étage, appartement 404, M. PETTGEN, sur la terrasse",34500,BEZIERS,30/05/2012,En extérieur,FicheMesure25662.pdf,Oui,4.48,Divers,AEXPERTISE,1
267,25679,3.8544400000000003,43.53917,"03° 51' 16.00'' Est, 43° 32' 21.00'' Nord",34337,Route Départementale 185,"Château d'eau, niveau réservoir, devant l?échelle d'accès au toit",34750,VILLENEUVE-LES-MAGUELONE,15/05/2012,En extérieur,FicheMesure25679.pdf,Oui,1.19,Locaux professionnels non accessibles au public,AEXPERTISE,1
268,25691,3.9291699999999996,43.6825,"03° 55' 45.00'' Est, 43° 40' 57.00'' Nord",34309,4 Rue du Château d'Eau,devant le n°4 ( M. BRUN ),34820,TEYRAN,24/04/2012,En extérieur,FicheMesure25691.pdf,Oui,2.04,Rue / Route / Parking,AEXPERTISE,1
269,25777,3.44,43.288059999999994,"03° 26' 24.00'' Est, 43° 17' 17.00'' Nord",34003,4 Rue du Commandant Malet,"Camping de la Tamarissière, sur l'emplacement n°132",34300,AGDE,19/06/2012,En extérieur,FicheMesure25777.pdf,Oui,0.66,Divers,AEXPERTISE,1
270,25905,3.21972,43.36333,"03° 13' 11.00'' Est, 43° 21' 48.00'' Nord",34032,1 Rue André Chamson,Devant le n°1,34500,BEZIERS,18/06/2012,En extérieur,FicheMesure25905.pdf,Oui,1.03,Rue / Route / Parking,AEXPERTISE,1
271,25907,3.2147200000000002,43.35389,"03° 12' 53.00'' Est, 43° 21' 14.00'' Nord",34032,1 Rue de la Clairette,En face du n°1,34500,BEZIERS,18/06/2012,En extérieur,FicheMesure25907.pdf,Oui,0.57,Rue / Route / Parking,AEXPERTISE,1
272,25908,3.2519400000000003,43.35222,"03° 15' 07.00'' Est, 43° 21' 08.00'' Nord",34032,Rue de l'Industrie,"Magasin BUT, sur le parking, au niveau Réception marchandises",34500,BEZIERS,18/06/2012,En extérieur,FicheMesure25908.pdf,Oui,1.95,Rue / Route / Parking,AEXPERTISE,1
273,25916,3.9052800000000003,43.6625,"03° 54' 19.00'' Est, 43° 39' 45.00'' Nord",34120,7 Rue des Bordes,"Chez M. JALABERT, dans le jardin",34830,JACOU,21/06/2012,En extérieur,FicheMesure25916.pdf,Oui,0.66,Divers,AEXPERTISE,1
274,25936,3.90694,43.56722,"03° 54' 25.00'' Est, 43° 34' 02.00'' Nord",34129,Route de Pérols - Les Arènes,"Les Arènes, devant l'entrée",34970,LATTES,20/06/2012,En extérieur,FicheMesure25936.pdf,Oui,1.03,Rue / Route / Parking,AEXPERTISE,1
275,26318,3.9291699999999996,43.6825,"03° 55' 45.00'' Est, 43° 40' 57.00'' Nord",34309,4 Rue du Château d'Eau,Devant le n°4 (M. BRUN),34820,TEYRAN,29/08/2012,En extérieur,FicheMesure26318.pdf,Oui,1.73,Rue / Route / Parking,AEXPERTISE,1
276,26336,3.6861099999999998,43.40139,"03° 41' 10.00'' Est, 43° 24' 05.00'' Nord",34301,1168 Chemin de Saint Clair,"Sur la terrasse dallée du domicile de Mr et Mme MACE ,à proximité du barbecue",34200,SETE,13/12/2011,En extérieur,FicheMesure26336.pdf,Oui,3.14,Divers,APAVE Sudeurope (CETE) Tassin la Demi-Lune,1
277,101621,3.89569,43.59303,"03° 53' 44.50'' Est, 43° 35' 34.90'' Nord",34172,Rue de Saint-Hilaire,,34000,MONTPELLIER,16/07/2013,En extérieur,Rapport public BM041306-R.pdf,Oui,1.41,Rue / Route / Parking,AEXPERTISE,1
278,101622,3.88133,43.59711,"03° 52' 52.80'' Est, 43° 35' 49.60'' Nord",34172,Rue des Marronniers,,34000,MONTPELLIER,16/07/2013,En extérieur,Rapport public BM041307-R.pdf,Oui,0.52,Rue / Route / Parking,AEXPERTISE,1
279,101739,3.48486,43.480579999999996,"03° 29' 05.50'' Est, 43° 28' 50.10'' Nord",34162,Avenue Pierre Azéma,,34530,MONTAGNAC,15/07/2013,En extérieur,Rapport public OS061301-R.pdf,Oui,0.39,Rue / Route / Parking,AEXPERTISE,1
280,101800,3.8809400000000003,43.61006,"03° 52' 51.40'' Est, 43° 36' 36.20'' Nord",34172,Esplanade Charles de Gaulle,,34000,MONTPELLIER,14/05/2013,En extérieur,Rapport public BM041302-R.pdf,Oui,0.78,Rue / Route / Parking,AEXPERTISE,1
281,101801,3.88133,43.59711,"03° 52' 52.80'' Est, 43° 35' 49.60'' Nord",34172,Rue des Marronniers,,34000,MONTPELLIER,15/05/2013,En extérieur,Rapport public BM041304-R.pdf,Oui,0.69,Rue / Route / Parking,AEXPERTISE,1
282,101802,3.89569,43.59303,"03° 53' 44.50'' Est, 43° 35' 34.90'' Nord",34172,Rue de Saint-Hilaire,,34000,MONTPELLIER,15/05/2013,En extérieur,Rapport public BM041303-R.pdf,Oui,0.6,Rue / Route / Parking,AEXPERTISE,1
283,102247,4.0416099999999995,43.64481,"04° 02' 29.80'' Est, 43° 38' 41.30'' Nord",34176,Avenue des Saladelles,,34130,MUDAISON,28/03/2013,En extérieur,Rapport public SM031301-R.pdf,Oui,0.79,Rue / Route / Parking,AEXPERTISE,1
284,102577,3.21492,43.34403,"03° 12' 53.70'' Est, 43° 20' 38.50'' Nord",34032,Rue Guibal,,34500,BEZIERS,17/12/2012,En extérieur,Rapport public SM101204-R.pdf,Oui,0.22,"Etablissement ouvert au public (Ecole, Et Soins, Gare?)",AEXPERTISE,1
285,102670,3.8770800000000003,43.614670000000004,"03° 52' 37.50'' Est, 43° 36' 52.80'' Nord",34172,28 Boulevard Pasteur,,34000,MONTPELLIER,24/10/2012,En extérieur,Rapport public OM101202-R.pdf,Oui,1.33,Divers,AEXPERTISE,1
286,102695,3.93111,43.65028,"03° 55' 52.00'' Est, 43° 39' 01.00'' Nord",34090,Impasse du Faisan,,34920,LE CRES,26/11/2012,En extérieur,Rapport public SM111203-R.pdf,Oui,0.64,Locaux professionnels non accessibles au public,AEXPERTISE,1
287,102764,3.8009699999999995,43.70117,"03° 48' 03.50'' Est, 43° 42' 04.20'' Nord",34255,Impasse des Pastourelles,,34980,SAINT-GELY-DU-FESC,27/11/2012,En extérieur,Rapport public OM101204-R.pdf,Oui,0.23,Rue / Route / Parking,AEXPERTISE,1
288,102793,3.4096699999999998,43.46053,"03° 24' 34.80'' Est, 43° 27' 37.90'' Nord",34199,Carrefour Marcel Paul,,34120,PEZENAS,20/12/2012,En extérieur,Rapport public BM071204-R-1.pdf,Oui,0.7,Rue / Route / Parking,AEXPERTISE,1
289,102819,3.92925,43.68186,"03° 55' 45.30'' Est, 43° 40' 54.70'' Nord",34309,Rue Rocher de l'Âne,,34820,TEYRAN,03/10/2012,En extérieur,Rapport public OM091201-R.pdf,Oui,1.74,Rue / Route / Parking,AEXPERTISE,1
290,102960,3.48889,43.27778,"03° 29' 20.00'' Est, 43° 16' 40.00'' Nord",34003,9 Avenue d'Outre Mer,,34300,AGDE,25/10/2012,En extérieur,Rapport public BM011203-R.pdf,Oui,1.87,Divers,AEXPERTISE,1
291,103189,4.004169999999999,43.62528,"04° 00' 15.00'' Est, 43° 37' 31.00'' Nord",34154,Route de Vendargues,,34130,MAUGUIO,26/11/2012,En extérieur,Rapport public SM111204-R.pdf,Oui,0.37,Locaux professionnels non accessibles au public,AEXPERTISE,1
292,103302,3.72875,43.67065,"03° 43' 43.50'' Est, 43° 40' 14.33'' Nord",34320,402 Rue du Devois,,34750,VAILHAUQUES,11/07/2013,En extérieur,C213R01PUB.pdf,Oui,0.95,Lieu d'habitation,EXEM,1
293,103372,3.8927199999999997,43.60559,"03° 53' 33.78'' Est, 43° 36' 20.12'' Nord",34172,87 Avenue du Pont Juvénal,,34000,MONTPELLIER,23/05/2013,En extérieur,C145R01PUB.pdf,Oui,1.11,Lieu d'habitation,EXEM,1
294,104496,3.8809400000000003,43.61006,"03° 52' 51.40'' Est, 43° 36' 36.20'' Nord",34172,Esplanade Charles de Gaulle,,34000,MONTPELLIER,16/07/2013,En extérieur,Rapport public BM041305-R.pdf,Oui,0.52,Rue / Route / Parking,AEXPERTISE,1
295,105226,3.6789699999999996,43.39411,"03° 40' 44.30'' Est, 43° 23' 38.80'' Nord",34301,Promenade Maréchal Leclerc,,34200,SETE,21/01/2013,En extérieur,Rapport public FM111217-R.pdf,Oui,1.93,Rue / Route / Parking,AEXPERTISE,1
296,105237,4.00389,43.62528,"04° 00' 14.00'' Est, 43° 37' 31.00'' Nord",34154,Route de Vendargues,,34130,MAUGUIO,11/04/2013,En extérieur,Rapport public FM031303-R.pdf,Oui,1.18,Locaux professionnels non accessibles au public,AEXPERTISE,1
297,105242,4.00389,43.62528,"04° 00' 14.00'' Est, 43° 37' 31.00'' Nord",34154,Route de Vendargues,,34130,MAUGUIO,11/04/2013,En extérieur,Rapport public FM031303-R.pdf,Oui,0.26,Divers,AEXPERTISE,1
298,113748,3.8922,43.63902,"03° 53' 31.90'' Est, 43° 38' 20.49'' Nord",34172,1427 Rue de Ferran,,34090,MONTPELLIER,25/02/2014,En extérieur,R_SO086_1_1PUB.pdf,Oui,1.35,Lieu d'habitation,EXEM,1
299,113755,4.11446,43.65712,"04° 06' 52.04'' Est, 43° 39' 25.64'' Nord",34272,35 Avenue Gabriel Péri,,34400,SAINT-JUST,25/02/2014,En extérieur,R_SO088_1_1PUB.pdf,Oui,2.33,Lieu d'habitation,EXEM,1
300,114120,3.9108699999999996,43.65517,"03° 54' 39.14'' Est, 43° 39' 18.61'' Nord",34120,2 Rue des Ecoles,,34830,JACOU,01/04/2014,En extérieur,R_SO160_1_1PUB.pdf,Oui,0.47,"Etablissement ouvert au public (Ecole, Et Soins, Gare?)",EXEM,1
301,114130,3.9092,43.65623,"03° 54' 33.13'' Est, 43° 39' 22.44'' Nord",34120,15 Avenue Jean Sébastien Bach,,34830,JACOU,01/04/2014,En extérieur,R_SO160_1_2PUB.pdf,Oui,0.29,"Etablissement ouvert au public (Ecole, Et Soins, Gare?)",EXEM,1
302,114502,3.8843400000000003,43.60985,"03° 53' 03.63'' Est, 43° 36' 35.46'' Nord",34172,51 Allée Jean de Beins,,34000,MONTPELLIER,05/05/2014,En extérieur,R_SO343_1_1PUB.pdf,Oui,0.67,Divers,EXEM,1
303,114891,3.8792199999999997,43.75865,"03° 52' 45.20'' Est, 43° 45' 31.13'' Nord",34276,34 Rue des Erables,,34270,SAINT-MATHIEU-DE-TREVIERS,12/06/2014,En extérieur,R_SO501_1_1PUB.pdf,Oui,0.31,Lieu d'habitation,EXEM,1
304,114898,3.8793,43.75824,"03° 52' 45.49'' Est, 43° 45' 29.68'' Nord",34276,30 Rue des Erables,,34270,SAINT-MATHIEU-DE-TREVIERS,12/06/2014,En extérieur,R_SO474_1_1PUB.pdf,Oui,0.64,Lieu d'habitation,EXEM,1
305,114965,3.87885,43.7592,"03° 52' 43.87'' Est, 43° 45' 33.11'' Nord",34276,38 Rue des Erables,,34270,SAINT-MATHIEU-DE-TREVIERS,12/06/2014,En extérieur,R_SO502_1_1PUB.pdf,Oui,0.5,Lieu d'habitation,EXEM,1
306,115394,3.215,43.35743,"03° 12' 54.00'' Est, 43° 21' 26.76'' Nord",34032,18 Place de la Clairette,,34500,BEZIERS,21/07/2014,En extérieur,R_SO672_1_1PUB.pdf,Oui,0.2,Lieu d'habitation,EXEM,1
307,115505,3.40728,43.42072,"03° 24' 26.21'' Est, 43° 25' 14.58'' Nord",34182,Hôtel de Ville,,34120,NEZIGNAN-L'EVEQUE,08/07/2014,En extérieur,R_SO585_1_10PUB.pdf,Oui,0.17,Rue / Route / Parking,EXEM,1
308,115513,4.13239,43.67901,"04° 07' 56.61'' Est, 43° 40' 44.42'' Nord",34145,Avenue Victor Hugo,,34400,LUNEL,01/07/2014,En extérieur,R_SO585_1_8PUB.pdf,Oui,0.23,Rue / Route / Parking,EXEM,1
309,115514,3.8967,43.599,"03° 53' 48.13'' Est, 43° 35' 56.41'' Nord",34172,1 Place Georges Freche,,34000,MONTPELLIER,09/07/2014,En extérieur,R_SO585_1_9PUB.pdf,Oui,6.65,Rue / Route / Parking,EXEM,0
310,115534,3.91079,43.66098,"03° 54' 38.84'' Est, 43° 39' 39.53'' Nord",34120,Rue de l'Hôtel de Ville,,34830,JACOU,02/07/2014,En extérieur,R_SO585_1_6PUB.pdf,Oui,0.16,Rue / Route / Parking,EXEM,1
311,115539,4.01262,43.66068,"04° 00' 45.44'' Est, 43° 39' 38.43'' Nord",34022,Place du 14 juillet,,34670,BAILLARGUES,09/07/2014,En extérieur,R_SO585_1_1PUB.pdf,Oui,0.17,Rue / Route / Parking,EXEM,1
312,115559,4.086069999999999,43.560320000000004,"04° 05' 09.86'' Est, 43° 33' 37.16'' Nord",34344,Place du 1er Octobre 1974,,34280,LA GRANDE-MOTTE,02/07/2014,En extérieur,R_SO585_1_7PUB.pdf,Oui,0.66,Divers,EXEM,1
313,115593,3.696,43.401509999999995,"03° 41' 45.59'' Est, 43° 24' 05.42'' Nord",34301,7 Rue Paul Valery,,34200,SETE,08/07/2014,En extérieur,R_SO585_1_13PUB.pdf,Oui,0.36,Rue / Route / Parking,EXEM,1
314,115627,3.75644,43.44545,"03° 45' 23.18'' Est, 43° 26' 43.63'' Nord",34108,Place de l'Hôtel de Ville,,34110,FRONTIGNAN,08/07/2014,En extérieur,R_SO585_1_5PUB.pdf,Oui,0.14,Rue / Route / Parking,EXEM,1
315,115632,3.9331,43.528220000000005,"03° 55' 59.16'' Est, 43° 31' 41.61'' Nord",34192,Boulevard Marechal Joffre,,34250,PALAVAS-LES-FLOTS,02/07/2014,En extérieur,R_SO585_1_11PUB.pdf,Oui,0.93,Rue / Route / Parking,EXEM,1
316,115647,3.29374,43.2472,"03° 17' 37.45'' Est, 43° 14' 49.91'' Nord",34324,Allée de Charles de Gaulle,,34350,VALRAS-PLAGE,08/07/2014,En extérieur,R_SO585_1_15PUB.pdf,Oui,0.39,Rue / Route / Parking,EXEM,1
317,115687,3.21291,43.34275,"03° 12' 46.48'' Est, 43° 20' 33.90'' Nord",34032,Place Gabriel Peri,,34500,BEZIERS,07/07/2014,En extérieur,R_SO585_1_2PUB.pdf,Oui,0.86,Rue / Route / Parking,EXEM,1
318,115698,4.06239,43.66745,"04° 03' 44.61'' Est, 43° 40' 02.83'' Nord",34321,Place de l'Horloge,,34130,VALERGUES,21/07/2014,En extérieur,R_SO585_1_14PUB.pdf,Oui,0.1,Rue / Route / Parking,EXEM,1
319,115706,3.8974699999999998,43.632940000000005,"03° 53' 50.91'' Est, 43° 37' 58.58'' Nord",34057,2 Rue de la crouzette,,34170,CASTELNAU-LE-LEZ,02/07/2014,En extérieur,R_SO585_1_4PUB.pdf,Oui,0.8,Rue / Route / Parking,EXEM,1
320,115710,3.95382,43.56394,"03° 57' 13.74'' Est, 43° 33' 50.18'' Nord",34198,Place Carnot,,34470,PEROLS,09/07/2014,En extérieur,R_SO585_1_12PUB.pdf,Oui,0.15,Rue / Route / Parking,EXEM,1
321,115711,3.65931,43.44688,"03° 39' 33.53'' Est, 43° 26' 48.76'' Nord",34039,1 Rue du port,,34140,BOUZIGUES,03/07/2014,En extérieur,R_SO585_1_3PUB.pdf,Oui,0.12,Rue / Route / Parking,EXEM,1
322,115805,3.2338,43.4581,"03° 14' 01.66'' Est, 43° 27' 29.15'' Nord",34224,Avenue de Béziers,,34480,PUISSALICON,29/07/2014,En extérieur,R_SO717_1_1PUB.pdf,Oui,0.67,Rue / Route / Parking,EXEM,1
323,115851,3.9910699999999997,43.622370000000004,"03° 59' 27.85'' Est, 43° 37' 20.54'' Nord",34154,Balauries - Chemin de Peyre Blanque,,34130,MAUGUIO,11/08/2014,En extérieur,R_SO758_1_1PUB.pdf,Oui,0.21,Lieu d'habitation,EXEM,1
324,116149,3.85886,43.613240000000005,"03° 51' 31.88'' Est, 43° 36' 47.67'' Nord",34172,21 Rue des Amaryllis,,34000,MONTPELLIER,02/09/2014,En extérieur,R_SO779_1_1PUB.pdf,Oui,0.87,Lieu d'habitation,EXEM,1
325,116449,3.89045,43.65231,"03° 53' 25.60'' Est, 43° 39' 08.31'' Nord",34077,Rue du Paraguay,,34830,CLAPIERS,02/09/2014,En extérieur,R_SO780_1_1PUB.pdf,Oui,0.76,Rue / Route / Parking,EXEM,1
326,118555,3.9456300000000004,43.56998,"03° 56' 44.26'' Est, 43° 34' 11.94'' Nord",34198,9 Rue du Château d'eau,,34470,PEROLS,27/11/2014,En extérieur,R_SO1179_1_1PUB.pdf,Oui,1.39,Lieu d'habitation,EXEM,1
327,118581,3.85494,43.63628,"03° 51' 17.79'' Est, 43° 38' 10.61'' Nord",34172,805 Avenue de l'Occitanie,,34090,MONTPELLIER,27/11/2014,En extérieur,R_SO1194_1_1PUB.pdf,Oui,1.69,Lieu d'habitation,EXEM,1
328,119103,3.8346699999999996,43.5815,"03° 50' 04.81'' Est, 43° 34' 53.40'' Nord",34270,Rue Engabanac,,34430,SAINT-JEAN-DE-VEDAS,08/01/2015,En extérieur,R_SO1321_1_1PUB.pdf,Oui,0.14,"Etablissement ouvert au public (Ecole, Et Soins, Gare?)",EXEM,1
329,119227,3.23138,43.35102,"03° 13' 52.98'' Est, 43° 21' 03.66'' Nord",34032,2 Rue Ferdinand de Lesseps,,34500,BEZIERS,10/12/2014,En extérieur,R_SO1234_1_1PUB.pdf,Oui,15.66,Divers,EXEM,0
330,119244,3.4859699999999996,43.7429,"03° 29' 09.48'' Est, 43° 44' 34.43'' Nord",34173,1 Chemin non renseigne,,34150,MONTPEYROUX,06/11/2014,En extérieur,Rapport_MA2-1001-004_public.pdf,Oui,4.78,"Etablissement ouvert au public (Ecole, Et Soins, Gare?)",SIMUTECH UAE,1
331,119353,3.90625,43.57244,"03° 54' 22.51'' Est, 43° 34' 20.77'' Nord",34129,Rue de la Martillière,,34970,LATTES,29/01/2015,En extérieur,R_SO1402_1_1PUB.pdf,Oui,0.75,Lieu d'habitation,EXEM,1
332,119379,3.2364,43.35949,"03° 14' 11.02'' Est, 43° 21' 34.16'' Nord",34032,44 Rue Raoul Dufy,,34500,BEZIERS,28/01/2015,En extérieur,R_SO1352_1_1PUB.pdf,Oui,0.08,Rue / Route / Parking,EXEM,1
333,119394,3.90657,43.57235,"03° 54' 23.64'' Est, 43° 34' 20.47'' Nord",34129,Rue de la Martillière,,34970,LATTES,29/01/2015,En extérieur,R_SO1403_1_1PUB.pdf,Oui,0.7,Lieu d'habitation,EXEM,1
334,119475,3.3243400000000003,43.76532,"03° 19' 27.63'' Est, 43° 45' 55.14'' Nord",34212,Chemin du Rocher,,34700,POUJOLS,09/02/2015,En extérieur,R_SO1460_1_1PUB.pdf,Oui,0.28,Lieu d'habitation,EXEM,1
335,119920,3.8768,43.59779,"03° 52' 36.47'' Est, 43° 35' 52.05'' Nord",34172,25 Avenue de Maurin,,34070,MONTPELLIER,05/06/2014,En extérieur,R_SO516_1_1PUB.pdf,Oui,0.29,Lieu d'habitation,EXEM,1
336,119946,3.17767,43.42125,"03° 10' 39.60'' Est, 43° 25' 16.51'' Nord",34310,8 Rue Pierre Cabanes,,34490,THEZAN-LES-BEZIERS,13/02/2014,En extérieur,R_SO022_1_1PUB.pdf,Oui,0.26,Lieu d'habitation,EXEM,1
337,120088,3.47399,43.3077,"03° 28' 26.36'' Est, 43° 18' 27.71'' Nord",34003,42 Rue de l'Egalité,,34300,AGDE,12/03/2015,En extérieur,R_SO1538_1_1PUB.pdf,Oui,0.87,Lieu d'habitation,EXEM,1
338,120171,3.23133,43.35094,"03° 13' 52.80'' Est, 43° 21' 03.37'' Nord",34032,4 Rue Ferdinand de Lesseps,,34500,BEZIERS,06/03/2015,En extérieur,R_SO1506_1_1PUB.pdf,Oui,2.41,Lieu d'habitation,EXEM,1
339,120338,3.23933,43.35138,"03° 14' 21.59'' Est, 43° 21' 04.98'' Nord",34032,1 Boulevard John Kennedy,,34500,BEZIERS,01/08/2014,En extérieur,R_SO761_1_1PUB.pdf,Oui,0.3,Lieu d'habitation,EXEM,1
340,121004,3.9718699999999996,43.5456,"03° 58' 18.74'' Est, 43° 32' 44.17'' Nord",34154,Rue du Mont Saint-Clair,,34130,MAUGUIO,28/04/2015,En extérieur,R_SO1701_1_1PUB.pdf,Oui,0.98,Divers,EXEM,1
341,121190,3.2949300000000004,43.25246,"03° 17' 41.74'' Est, 43° 15' 08.87'' Nord",34324,28 Boulevard du Commandant L'Herminier,,34350,VALRAS-PLAGE,29/04/2015,En extérieur,R_SO1736_1_1PUB.pdf,Oui,0.96,Lieu d'habitation,EXEM,1
342,121654,3.88139,43.61813,"03° 52' 53.00'' Est, 43° 37' 05.25'' Nord",34172,58 Rue Lunaret,,34090,MONTPELLIER,04/06/2015,En extérieur,R_SO1881_1_1PUB.pdf,Oui,1.05,Lieu d'habitation,EXEM,1
343,122040,3.60658,43.42727,"03° 36' 23.68'' Est, 43° 25' 38.18'' Nord",34157,18 Rue Sadi-carnot,,34140,MEZE,01/07/2015,En extérieur,R_SO1948_1_1PUB.pdf,Oui,1.73,Rue / Route / Parking,EXEM,1
344,122054,3.2126799999999998,43.36029,"03° 12' 45.64'' Est, 43° 21' 37.03'' Nord",34032,218 Route De Corneilhan,,34500,BEZIERS,01/07/2015,En extérieur,R_SO1932_1_1PUB.pdf,Oui,0.22,Lieu d'habitation,EXEM,1
345,122310,3.88723,43.61534,"03° 53' 14.02'' Est, 43° 36' 55.21'' Nord",34172,78 Impasse des Parasols,,34000,MONTPELLIER,21/07/2015,En extérieur,R_SO1982_1_5PUB.pdf,Oui,0.87,Lieu d'habitation,EXEM,1
346,122319,3.89195,43.617059999999995,"03° 53' 31.03'' Est, 43° 37' 01.41'' Nord",34172,58 Boulevard Ernest Renan,,34000,MONTPELLIER,21/07/2015,En extérieur,R_SO1982_1_13PUB.pdf,Oui,0.37,Lieu d'habitation,EXEM,1
347,122368,3.89035,43.61743,"03° 53' 25.27'' Est, 43° 37' 02.74'' Nord",34172,46 Boulevard Ernest Renan,,34000,MONTPELLIER,22/07/2015,En extérieur,R_SO1982_1_8PUB.pdf,Oui,0.79,Lieu d'habitation,EXEM,1
348,122734,3.42242,43.39396,"03° 25' 20.72'' Est, 43° 23' 38.27'' Nord",34289,Allée Des Cévennes,,34630,SAINT-THIBERY,17/08/2015,En extérieur,R_SO2049_1_1PUB.pdf,Oui,1.04,Rue / Route / Parking,EXEM,1
349,122737,3.60669,43.42718,"03° 36' 24.07'' Est, 43° 25' 37.86'' Nord",34157,16 Rue Sadi Carnot,,34140,MEZE,18/08/2015,En extérieur,R_SO2063_1_4PUB.pdf,Oui,1.7,Lieu d'habitation,EXEM,1
350,122743,3.6070699999999998,43.42781,"03° 36' 25.44'' Est, 43° 25' 40.12'' Nord",34157,10 Rue Victor Hugo,,34140,MEZE,19/08/2015,En extérieur,R_SO2063_1_7PUB.pdf,Oui,2.18,Lieu d'habitation,EXEM,1
351,122754,3.6068300000000004,43.42698,"03° 36' 24.60'' Est, 43° 25' 37.14'' Nord",34157,2 Rue De La Loge,,34140,MEZE,18/08/2015,En extérieur,R_SO2063_1_6PUB.pdf,Oui,0.54,"Commerce (Centre commercial, ?",EXEM,1
352,122759,3.60659,43.42759,"03° 36' 23.72'' Est, 43° 25' 39.34'' Nord",34157,10 Rue Sadi Carnot,,34140,MEZE,17/08/2015,En extérieur,R_SO2063_1_2PUB.pdf,Oui,1.36,Lieu d'habitation,EXEM,1
353,123199,3.54605,43.319759999999995,"03° 32' 45.77'' Est, 43° 19' 11.15'' Nord",34150,106 Avenue de Sète,,34340,MARSEILLAN,06/10/2015,En extérieur,R_SO2165_1_4PUB.pdf,Oui,1.33,Rue / Route / Parking,EXEM,1
354,123207,3.5562199999999997,43.318490000000004,"03° 33' 22.40'' Est, 43° 19' 06.57'' Nord",34150,48 Allée André Filliol,,34340,MARSEILLAN,28/09/2015,En extérieur,R_SO2165_1_1PUB.pdf,Oui,1.09,Rue / Route / Parking,EXEM,1
355,123208,3.5189699999999995,43.35658,"03° 31' 08.28'' Est, 43° 21' 23.67'' Nord",34150,15 Avenue de la Zone Industrielle,,34340,MARSEILLAN,28/09/2015,En extérieur,R_SO2165_1_2PUB.pdf,Oui,0.45,Locaux professionnels non accessibles au public,EXEM,1
356,123220,3.532,43.35102,"03° 31' 55.20'' Est, 43° 21' 03.69'' Nord",34150,Promenade de la Belle Scribote,,34340,MARSEILLAN,28/09/2015,En extérieur,R_SO2165_1_3PUB.pdf,Oui,1.1,Rue / Route / Parking,EXEM,1
357,123405,3.3323099999999997,43.307320000000004,"03° 19' 56.32'' Est, 43° 18' 26.36'' Nord",34209,Chemin de Combe Grasse,,34420,PORTIRAGNES,20/10/2015,En extérieur,R_SO2249_1_1PUB.pdf,Oui,1.11,Rue / Route / Parking,EXEM,1
358,124232,3.7923400000000003,43.49053,"03° 47' 32.43'' Est, 43° 29' 25.92'' Nord",34333,Chemin Bas de Saint-Georges,,34110,VIC-LA-GARDIOLE,10/12/2015,En extérieur,R_SO2386_1_1PUB.pdf,Oui,0.73,Rue / Route / Parking,EXEM,1
359,124881,3.66471,43.48635,"03° 39' 52.97'' Est, 43° 29' 10.87'' Nord",34213,Chemin De Loupian,,34560,POUSSAN,04/01/2016,En extérieur,R_SO2483_1_2PUB.pdf,Oui,0.18,Rue / Route / Parking,EXEM,1
360,124883,3.6668199999999995,43.48818,"03° 40' 00.54'' Est, 43° 29' 17.43'' Nord",34213,26 Rue De la Salle,,34560,POUSSAN,04/01/2016,En extérieur,R_SO2483_1_3PUB.pdf,Oui,0.14,"Etablissement ouvert au public (Ecole, Et Soins, Gare?)",EXEM,1
361,124890,3.66265,43.48664,"03° 39' 45.55'' Est, 43° 29' 11.91'' Nord",34213,Chemin De Loupian,,34560,POUSSAN,04/01/2016,En extérieur,R_SO2483_1_1PUB.pdf,Oui,0.15,"Etablissement ouvert au public (Ecole, Et Soins, Gare?)",EXEM,1
362,124913,3.92553,43.683170000000004,"03° 55' 31.91'' Est, 43° 40' 59.43'' Nord",34309,Place du Ballon,,34820,TEYRAN,07/01/2016,En extérieur,R_SO2482_1_2PUB.pdf,Oui,0.4,Rue / Route / Parking,EXEM,1
363,124918,3.9243099999999997,43.683279999999996,"03° 55' 27.51'' Est, 43° 40' 59.79'' Nord",34309,Rue Colin,,34820,TEYRAN,07/01/2016,En extérieur,R_SO2482_1_4PUB.pdf,Oui,0.57,Rue / Route / Parking,EXEM,1
364,124922,3.9245699999999997,43.68289,"03° 55' 28.43'' Est, 43° 40' 58.39'' Nord",34309,Rue De l'Eglise,,34820,TEYRAN,08/01/2016,En extérieur,R_SO2482_1_1PUB.pdf,Oui,0.77,Rue / Route / Parking,EXEM,1
365,126298,3.9108300000000003,43.61152,"03° 54' 39.00'' Est, 43° 36' 41.46'' Nord",34172,145 Rue Guglielmo Marconi,,34000,MONTPELLIER,07/03/2016,En extérieur,R_SO2713_1_1PUB.pdf,Oui,3.88,Lieu d'habitation,EXEM,1
366,126316,3.82539,43.60675,"03° 49' 31.40'' Est, 43° 36' 24.29'' Nord",34172,13 Rue des Passiflores,,34070,MONTPELLIER,07/03/2016,En extérieur,R_SO2646_1_1PUB.pdf,Oui,2.31,Lieu d'habitation,EXEM,1
367,126521,3.94564,43.57031,"03° 56' 44.29'' Est, 43° 34' 13.12'' Nord",34198,Rue Alphonse Daudet,,34470,PEROLS,07/04/2016,En extérieur,R_SO2792_1_1PUB.pdf,Oui,1.66,Divers,EXEM,1
368,126986,3.95568,43.75097,"03° 57' 20.44'' Est, 43° 45' 03.49'' Nord",34164,11 Rue Gaston Baissette,,34160,MONTAUD,12/05/2016,En extérieur,R_SO2837_1_1PUB.pdf,Oui,0.17,"Etablissement ouvert au public (Ecole, Et Soins, Gare?)",EXEM,1
369,127039,3.1258,43.35383,"03° 07' 32.89'' Est, 43° 21' 13.79'' Nord",34155,Chemin de Quarante,,34370,MAUREILHAN,17/05/2016,En extérieur,R_SO2919_1_1PUB.pdf,Oui,0.21,Divers,EXEM,1
370,127976,3.94639,43.57035,"03° 56' 47.00'' Est, 43° 34' 13.26'' Nord",34198,9 Rue Alphonse Daudet,,34470,PEROLS,27/07/2016,En extérieur,R_SO3154_1_1PUB.pdf,Oui,2.31,Lieu d'habitation,EXEM,1
371,127991,3.46288,43.517959999999995,"03° 27' 46.38'' Est, 43° 31' 04.67'' Nord",34315,Rue du Château d'Eau,,34230,USCLAS-D'HERAULT,27/07/2016,En extérieur,R_SO3111_1_1PUB.pdf,Oui,0.12,Divers,EXEM,1
372,128004,3.9456599999999997,43.5698,"03° 56' 44.37'' Est, 43° 34' 11.29'' Nord",34198,7 Rue du Château d'Eau,,34470,PEROLS,27/07/2016,En extérieur,R_SO3116_1_1PUB.pdf,Oui,1.36,Lieu d'habitation,EXEM,1
373,128043,3.94484,43.57029,"03° 56' 41.43'' Est, 43° 34' 13.06'' Nord",34198,49 Avenue Louis Pasteur,,34470,PEROLS,27/07/2016,En extérieur,R_SO3118_1_1PUB.pdf,Oui,1.38,Lieu d'habitation,EXEM,1
374,128047,3.94596,43.5708,"03° 56' 45.45'' Est, 43° 34' 14.88'' Nord",34198,43 Avenue Louis Pasteur,,34470,PEROLS,26/07/2016,En extérieur,R_SO3118_1_2PUB.pdf,Oui,3.41,Lieu d'habitation,EXEM,1
375,128103,3.89141,43.65005,"03° 53' 29.09'' Est, 43° 39' 00.18'' Nord",34077,37 Rue des Peupliers,,34830,CLAPIERS,11/08/2016,En extérieur,R_SO3179_1_1PUB.pdf,Oui,0.26,Lieu d'habitation,EXEM,1
376,128336,3.81198,43.62212,"03° 48' 43.12'' Est, 43° 37' 19.63'' Nord",34172,345 Avenue de Heidelberg,,34080,MONTPELLIER,12/08/2016,En extérieur,R_SO3173_1_1PUB.pdf,Non,25.39,Divers,EXEM,0
377,128344,3.82805,43.58316,"03° 49' 40.98'' Est, 43° 34' 59.37'' Nord",34270,Rue du Pioch,,34430,SAINT-JEAN-DE-VEDAS,20/09/2016,En extérieur,R_SO3237_1_1PUB.pdf,Oui,0.78,Rue / Route / Parking,EXEM,1
378,128347,3.82726,43.581790000000005,"03° 49' 38.12'' Est, 43° 34' 54.44'' Nord",34270,Rue des Hauts de Saint Jean,,34430,SAINT-JEAN-DE-VEDAS,20/09/2016,En extérieur,R_SO3237_1_3PUB.pdf,Oui,0.23,Rue / Route / Parking,EXEM,1
379,128372,3.8304099999999996,43.58031,"03° 49' 49.47'' Est, 43° 34' 49.10'' Nord",34270,Rue de la Cadorque,,34430,SAINT-JEAN-DE-VEDAS,20/09/2016,En extérieur,R_SO3237_1_2PUB.pdf,Oui,0.17,Rue / Route / Parking,EXEM,1
380,128506,3.94585,43.56997,"03° 56' 45.06'' Est, 43° 34' 11.88'' Nord",34198,9 Rue du Château d'Eau,,34470,PEROLS,03/10/2016,En extérieur,R_SO3249_1_1PUB.pdf,Oui,1.46,Lieu d'habitation,EXEM,1
381,128914,3.3309800000000003,43.30788,"03° 19' 51.54'' Est, 43° 18' 28.37'' Nord",34209,5 Rue de Combes Grasse,,34420,PORTIRAGNES,09/11/2016,En extérieur,R_SO3422_1_1PUB.pdf,Oui,1.09,Lieu d'habitation,EXEM,1
382,128915,3.2281400000000002,43.353320000000004,"03° 13' 41.29'' Est, 43° 21' 11.94'' Nord",34032,3 Rue Claude Farrère,,34500,BEZIERS,10/11/2016,En extérieur,R_SO3355_1_2PUB.pdf,Oui,0.83,Lieu d'habitation,EXEM,1
383,129135,3.20885,43.363459999999996,"03° 12' 31.84'' Est, 43° 21' 48.45'' Nord",34032,425 Rue Alain Colas,,34500,BEZIERS,12/12/2016,En extérieur,R_SO3480_1_1PUB.pdf,Oui,0.61,Lieu d'habitation,EXEM,1
384,129389,3.8719699999999997,43.63196,"03° 52' 19.10'' Est, 43° 37' 55.06'' Nord",34172,288 Avenue Val de Montferrand,,34000,MONTPELLIER,03/01/2017,En extérieur,R_SO3584_1_1PUB.pdf,Oui,1.96,Divers,EXEM,1
385,129711,3.9318800000000005,43.65047,"03° 55' 54.78'' Est, 43° 39' 01.69'' Nord",34090,Rue Raymond Roger Trencavel,,34920,LE CRES,08/02/2017,En extérieur,R_SO3691_1_1PUB.pdf,Oui,1.39,Rue / Route / Parking,EXEM,1
386,129724,3.93643,43.64033,"03° 56' 11.15'' Est, 43° 38' 25.19'' Nord",34090,Rue des Pointes,,34920,LE CRES,08/02/2017,En extérieur,R_SO3719_1_1PUB.pdf,Oui,0.82,Divers,EXEM,1
387,129754,3.22816,43.35331,"03° 13' 41.37'' Est, 43° 21' 11.91'' Nord",34032,3 Rue Claude Farrère,,34500,BEZIERS,10/11/2016,En extérieur,R_SO3355_1_1PUB.pdf,Oui,1.97,Lieu d'habitation,EXEM,1
388,129897,3.812,43.62209,"03° 48' 43.19'' Est, 43° 37' 19.52'' Nord",34172,345 Avenue de Heidelberg,,34080,MONTPELLIER,08/02/2017,En extérieur,R_SO3626_1_1PUB.pdf,Oui,10.33,Divers,EXEM,0
389,129988,3.87313,43.60115,"03° 52' 23.27'' Est, 43° 36' 04.13'' Nord",34172,6 Rue Ramel,,34000,MONTPELLIER,09/03/2017,En extérieur,R_SO3808_1_1PUB.pdf,Oui,2.26,Lieu d'habitation,EXEM,1
390,130005,3.71956,43.941990000000004,"03° 43' 10.41'' Est, 43° 56' 31.16'' Nord",34111,6 Rue du Vent d'Autan,,34190,GANGES,11/03/2017,En extérieur,R_SO3907_1_1PUB.pdf,Oui,0.42,Lieu d'habitation,EXEM,1
391,130019,4.0050300000000005,43.55307,"04° 00' 18.12'' Est, 43° 33' 11.07'' Nord",34154,Avenue Grassion Cibrand,,34280,MAUGUIO,09/03/2017,En extérieur,R_SO3846_1_1PUB.pdf,Oui,0.44,Rue / Route / Parking,EXEM,1
392,130021,3.99977,43.55088,"03° 59' 59.19'' Est, 43° 33' 03.17'' Nord",34154,377 Avenue Grassion Cibrand,,34130,MAUGUIO,09/03/2017,En extérieur,R_SO3846_1_2PUB.pdf,Oui,1.48,Divers,EXEM,1
393,130022,3.8799099999999997,43.61885,"03° 52' 47.68'' Est, 43° 37' 07.86'' Nord",34172,6 Avenue de Castelnau,,34090,MONTPELLIER,09/03/2017,En extérieur,R_SO3877_1_1PUB.pdf,Oui,2.4,Lieu d'habitation,EXEM,1
394,130531,3.54702,43.65985,"03° 32' 49.26'' Est, 43° 39' 35.45'' Nord",34114,Route de Lagamas,,34150,GIGNAC,03/05/2017,En extérieur,R_SO4104_1_1PUB.pdf,Oui,0.17,Divers,EXEM,1
395,130544,4.06211,43.563790000000004,"04° 03' 43.59'' Est, 43° 33' 49.63'' Nord",34344,980 Avenue du Bois Couchant,,34280,LA GRANDE-MOTTE,03/05/2017,En extérieur,R_SO4106_1_1PUB.pdf,Oui,1.2,Divers,EXEM,1
396,130639,4.08473,43.55872,"04° 05' 05.01'' Est, 43° 33' 31.38'' Nord",34344,32 Rue Racine,,34280,LA GRANDE-MOTTE,31/05/2017,En extérieur,R_SO4167_1_1PUB.pdf,Oui,1.66,Divers,EXEM,1
397,130898,3.81357,43.61303,"03° 48' 48.83'' Est, 43° 36' 46.92'' Nord",34123,14 Chemin de la Plaine,,34990,JUVIGNAC,28/06/2017,En extérieur,R_SO4274_1_1PUB.pdf,Oui,0.25,Lieu d'habitation,EXEM,1
398,130899,3.9524,43.56153,"03° 57' 08.63'' Est, 43° 33' 41.49'' Nord",34198,129 Allée Jacques Brel,,34470,PEROLS,29/06/2017,En extérieur,R_SO4272_1_1PUB.pdf,Oui,0.31,Lieu d'habitation,EXEM,1
399,130924,3.4073300000000004,43.42071,"03° 24' 26.38'' Est, 43° 25' 14.54'' Nord",34182,Hôtel de Ville,,34120,NEZIGNAN-L'EVEQUE,27/06/2017,En extérieur,R_SO4354_1_3PUB.pdf,Oui,0.1,Rue / Route / Parking,EXEM,1
400,130929,3.6593699999999996,43.44681,"03° 39' 33.73'' Est, 43° 26' 48.50'' Nord",34039,1 Rue du port,,34140,BOUZIGUES,27/06/2017,En extérieur,R_SO4354_1_4PUB.pdf,Oui,0.09,Rue / Route / Parking,EXEM,1
401,130930,3.9107,43.66087,"03° 54' 38.53'' Est, 43° 39' 39.14'' Nord",34120,Rue de l'Hôtel de Ville,,34830,JACOU,29/06/2017,En extérieur,R_SO4354_1_8PUB.pdf,Oui,0.1,Rue / Route / Parking,EXEM,1
402,130938,3.89759,43.632870000000004,"03° 53' 51.33'' Est, 43° 37' 58.32'' Nord",34057,2 Rue de la crouzette,,34170,CASTELNAU-LE-LEZ,29/06/2017,En extérieur,R_SO4354_1_9PUB.pdf,Oui,0.75,Rue / Route / Parking,EXEM,1
403,130944,3.69593,43.401579999999996,"03° 41' 45.36'' Est, 43° 24' 05.68'' Nord",34301,7 Rue Paul Valery,,34200,SETE,28/06/2017,En extérieur,R_SO4354_1_6PUB.pdf,Oui,0.23,Rue / Route / Parking,EXEM,1
404,130958,3.21316,43.342729999999996,"03° 12' 47.37'' Est, 43° 20' 33.82'' Nord",34032,Place Gabriel Peri,,34500,BEZIERS,27/06/2017,En extérieur,R_SO4354_1_1PUB.pdf,Oui,0.53,Rue / Route / Parking,EXEM,1
405,130968,3.8963099999999997,43.59879,"03° 53' 46.70'' Est, 43° 35' 55.65'' Nord",34172,1 Place Georges Freche,,34000,MONTPELLIER,28/06/2017,En extérieur,R_SO4354_1_7PUB.pdf,Oui,4.18,Rue / Route / Parking,EXEM,1
